{
"type": "FeatureCollection",
"name": "Schools",
"crs": { "type": "name", "properties": { "name": "urn:ogc:def:crs:OGC:1.3:CRS84" } },
"features": [
{ "type": "Feature", "properties": { "OBJECTID": 1, "NAME": "Sanger", "GRADE": "High School", "SYMBOL": 91, "SCHOOL_SYM": 3, "ISD": "Sanger", "Visible": "Yes", "Address": "100 Indian Ln, Sanger, TX 76266", "ISDID": 11, "CampusID": 172, "Status": null, "County": "Denton" }, "geometry": { "type": "Point", "coordinates": [ -97.160926260990067, 33.369375359990393 ] } },
{ "type": "Feature", "properties": { "OBJECTID": 2, "NAME": "Chisholm Trail", "GRADE": "Elementary School", "SYMBOL": 98, "SCHOOL_SYM": 1, "ISD": "Sanger", "Visible": "Yes", "Address": "812 Keaton Rd N, Sanger, TX 76266", "ISDID": 11, "CampusID": 173, "Status": null, "County": "Denton" }, "geometry": { "type": "Point", "coordinates": [ -97.188228069155059, 33.366438308769567 ] } },
{ "type": "Feature", "properties": { "OBJECTID": 3, "NAME": "Clear Creek", "GRADE": "Intermediate School", "SYMBOL": 92, "SCHOOL_SYM": 2, "ISD": "Sanger", "Visible": "Yes", "Address": "1901 S Stemmons St, Sanger, TX 76266", "ISDID": 11, "CampusID": 174, "Status": null, "County": "Denton" }, "geometry": { "type": "Point", "coordinates": [ -97.184079569745521, 33.347441203844738 ] } },
{ "type": "Feature", "properties": { "OBJECTID": 4, "NAME": "Sanger", "GRADE": "Middle School", "SYMBOL": 92, "SCHOOL_SYM": 2, "ISD": "Sanger", "Visible": "Yes", "Address": "105 N Berry St, Sanger, TX 76266", "ISDID": 11, "CampusID": 175, "Status": null, "County": "Denton" }, "geometry": { "type": "Point", "coordinates": [ -97.184589432563584, 33.361669649359953 ] } },
{ "type": "Feature", "properties": { "OBJECTID": 5, "NAME": "Butterfield", "GRADE": "Elementary School", "SYMBOL": 98, "SCHOOL_SYM": 1, "ISD": "Sanger", "Visible": "Yes", "Address": "291 Indian Ln, Sanger, TX 76266", "ISDID": 11, "CampusID": 176, "Status": null, "County": "Denton" }, "geometry": { "type": "Point", "coordinates": [ -97.15848214960441, 33.364446365337422 ] } },
{ "type": "Feature", "properties": { "OBJECTID": 6, "NAME": "Sanger", "GRADE": "6th Grade Campus", "SYMBOL": 92, "SCHOOL_SYM": 2, "ISD": "Sanger", "Visible": "Yes", "Address": "508 N 7th St, Sanger, TX 76266", "ISDID": 11, "CampusID": 177, "Status": null, "County": "Denton" }, "geometry": { "type": "Point", "coordinates": [ -97.175218740925942, 33.364102886851931 ] } },
{ "type": "Feature", "properties": { "OBJECTID": 7, "NAME": "Pilot Point", "GRADE": "High School", "SYMBOL": 91, "SCHOOL_SYM": 3, "ISD": "Pilot Point", "Visible": "Yes", "Address": "1300 N Washington St, Pilot Point, TX 76258", "ISDID": 9, "CampusID": 165, "Status": null, "County": "Denton" }, "geometry": { "type": "Point", "coordinates": [ -96.947674639172874, 33.410875247602434 ] } },
{ "type": "Feature", "properties": { "OBJECTID": 8, "NAME": "Pilot Point", "GRADE": "Early Childhood Ctr", "SYMBOL": 98, "SCHOOL_SYM": 1, "ISD": "Pilot Point", "Visible": "Yes", "Address": "829 S Jefferson St, Pilot Point, TX 76258", "ISDID": 9, "CampusID": 166, "Status": null, "County": "Denton" }, "geometry": { "type": "Point", "coordinates": [ -96.959029551200118, 33.388129981740725 ] } },
{ "type": "Feature", "properties": { "OBJECTID": 9, "NAME": "Pilot Point", "GRADE": "Elementary School", "SYMBOL": 92, "SCHOOL_SYM": 1, "ISD": "Pilot Point", "Visible": "Yes", "Address": "501 East Carroll Street, Pilot Point, TX 76258", "ISDID": 9, "CampusID": 167, "Status": null, "County": "Denton" }, "geometry": { "type": "Point", "coordinates": [ -96.952800887684973, 33.402584093794253 ] } },
{ "type": "Feature", "properties": { "OBJECTID": 10, "NAME": "Pilot Point", "GRADE": "Middle School", "SYMBOL": 92, "SCHOOL_SYM": 2, "ISD": "Pilot Point", "Visible": "Yes", "Address": "828 S Harrison St, Pilot Point, TX 76258", "ISDID": 9, "CampusID": 168, "Status": null, "County": "Denton" }, "geometry": { "type": "Point", "coordinates": [ -96.95530996653504, 33.388396135701591 ] } },
{ "type": "Feature", "properties": { "OBJECTID": 11, "NAME": "Brockett", "GRADE": "Elementary School", "SYMBOL": 98, "SCHOOL_SYM": 1, "ISD": "Aubrey", "Visible": "Yes", "Address": "900 Chestnut St, Aubrey, TX 76227", "ISDID": 2, "CampusID": 6, "Status": null, "County": "Denton" }, "geometry": { "type": "Point", "coordinates": [ -96.986397216599784, 33.294832541355575 ] } },
{ "type": "Feature", "properties": { "OBJECTID": 12, "NAME": "Aubrey", "GRADE": "Middle School", "SYMBOL": 92, "SCHOOL_SYM": 2, "ISD": "Aubrey", "Visible": "Yes", "Address": "815 W Sherman Dr, Aubrey, TX 76227", "ISDID": 2, "CampusID": 7, "Status": null, "County": "Denton" }, "geometry": { "type": "Point", "coordinates": [ -96.994961938059618, 33.303336589122182 ] } },
{ "type": "Feature", "properties": { "OBJECTID": 13, "NAME": "Aubrey", "GRADE": "High School", "SYMBOL": 91, "SCHOOL_SYM": 3, "ISD": "Aubrey", "Visible": "Yes", "Address": "510 Spring Hill Rd, Aubrey, TX 76227", "ISDID": 2, "CampusID": 8, "Status": null, "County": "Denton" }, "geometry": { "type": "Point", "coordinates": [ -96.980344873080099, 33.297410375631905 ] } },
{ "type": "Feature", "properties": { "OBJECTID": 14, "NAME": "Monaco", "GRADE": "Elementary School", "SYMBOL": 98, "SCHOOL_SYM": 1, "ISD": "Aubrey", "Visible": "Yes", "Address": "9350 Cape Cod Blvd, Providence Village, TX 76227", "ISDID": 2, "CampusID": 9, "Status": null, "County": "Denton" }, "geometry": { "type": "Point", "coordinates": [ -96.968296095398642, 33.239315189801019 ] } },
{ "type": "Feature", "properties": { "OBJECTID": 15, "NAME": "McWhorter", "GRADE": "Elementary School", "SYMBOL": 98, "SCHOOL_SYM": 1, "ISD": "Carrollton-Farmers Branch", "Visible": "Yes", "Address": "3678 Timberglen Rd, Dallas, TX 75287", "ISDID": 12, "CampusID": 179, "Status": null, "County": "Denton" }, "geometry": { "type": "Point", "coordinates": [ -96.850569830726997, 33.000245792127274 ] } },
{ "type": "Feature", "properties": { "OBJECTID": 16, "NAME": "Rainwater", "GRADE": "Elementary School", "SYMBOL": 98, "SCHOOL_SYM": 1, "ISD": "Carrollton-Farmers Branch", "Visible": "Yes", "Address": "1408 Frankford Rd E, Carrollton, TX 75007", "ISDID": 12, "CampusID": 180, "Status": null, "County": "Denton" }, "geometry": { "type": "Point", "coordinates": [ -96.905332100033206, 32.99791307674537 ] } },
{ "type": "Feature", "properties": { "OBJECTID": 17, "NAME": "Kent", "GRADE": "Elementary School", "SYMBOL": 98, "SCHOOL_SYM": 1, "ISD": "Carrollton-Farmers Branch", "Visible": "Yes", "Address": "1800 W Rosemeade Pkwy, Carrollton, TX 75007", "ISDID": 12, "CampusID": 181, "Status": null, "County": "Denton" }, "geometry": { "type": "Point", "coordinates": [ -96.921422530432778, 32.999545964985586 ] } },
{ "type": "Feature", "properties": { "OBJECTID": 18, "NAME": "Rosemeade", "GRADE": "Elementary School", "SYMBOL": 98, "SCHOOL_SYM": 1, "ISD": "Carrollton-Farmers Branch", "Visible": "Yes", "Address": "3550 Kimberly Dr, Carrollton, TX 75007", "ISDID": 12, "CampusID": 182, "Status": null, "County": "Denton" }, "geometry": { "type": "Point", "coordinates": [ -96.905830909901724, 33.007304480966809 ] } },
{ "type": "Feature", "properties": { "OBJECTID": 19, "NAME": "Davis", "GRADE": "Elementary School", "SYMBOL": 98, "SCHOOL_SYM": 1, "ISD": "Carrollton-Farmers Branch", "Visible": "Yes", "Address": "3205 Dorchester Dr, Carrollton, TX 75007", "ISDID": 12, "CampusID": 183, "Status": null, "County": "Denton" }, "geometry": { "type": "Point", "coordinates": [ -96.890354284997343, 33.005628041812614 ] } },
{ "type": "Feature", "properties": { "OBJECTID": 20, "NAME": "Furneaux", "GRADE": "Elementary School", "SYMBOL": 98, "SCHOOL_SYM": 1, "ISD": "Carrollton-Farmers Branch", "Visible": "Yes", "Address": "3210 Furneaux Ln, Carrollton, TX 75007", "ISDID": 12, "CampusID": 184, "Status": null, "County": "Denton" }, "geometry": { "type": "Point", "coordinates": [ -96.873624778144929, 33.005850758103598 ] } },
{ "type": "Feature", "properties": { "OBJECTID": 21, "NAME": "Sheffield", "GRADE": "Elementary School", "SYMBOL": 98, "SCHOOL_SYM": 1, "ISD": "Carrollton-Farmers Branch", "Visible": "Yes", "Address": "18111 Kelly Blvd, Dallas, TX 75287", "ISDID": 12, "CampusID": 185, "Status": null, "County": "Denton" }, "geometry": { "type": "Point", "coordinates": [ -96.864934376273183, 32.999833610398085 ] } },
{ "type": "Feature", "properties": { "OBJECTID": 22, "NAME": "McKamy", "GRADE": "Elementary School", "SYMBOL": 98, "SCHOOL_SYM": 1, "ISD": "Carrollton-Farmers Branch", "Visible": "Yes", "Address": "3443 Briargrove Ln, Dallas, TX 75287", "ISDID": 12, "CampusID": 186, "Status": null, "County": "Denton" }, "geometry": { "type": "Point", "coordinates": [ -96.861708341788713, 32.991306458827751 ] } },
{ "type": "Feature", "properties": { "OBJECTID": 23, "NAME": "Creekview", "GRADE": "High School", "SYMBOL": 91, "SCHOOL_SYM": 3, "ISD": "Carrollton-Farmers Branch", "Visible": "Yes", "Address": "3201 Old Denton Rd, Carrollton, TX 75007", "ISDID": 12, "CampusID": 187, "Status": null, "County": "Denton" }, "geometry": { "type": "Point", "coordinates": [ -96.912453893131499, 33.002715729079767 ] } },
{ "type": "Feature", "properties": { "OBJECTID": 24, "NAME": "Blalack", "GRADE": "Middle School", "SYMBOL": 92, "SCHOOL_SYM": 2, "ISD": "Carrollton-Farmers Branch", "Visible": "Yes", "Address": "1706 E Peters Colony Rd, Carrollton, TX 75007", "ISDID": 12, "CampusID": 188, "Status": null, "County": "Denton" }, "geometry": { "type": "Point", "coordinates": [ -96.897143167413702, 33.003626281888373 ] } },
{ "type": "Feature", "properties": { "OBJECTID": 25, "NAME": "Long", "GRADE": "Middle School", "SYMBOL": 92, "SCHOOL_SYM": 2, "ISD": "Carrollton-Farmers Branch", "Visible": "Yes", "Address": "2525 Frankford Rd, Dallas, TX 75287", "ISDID": 12, "CampusID": 189, "Status": null, "County": "Denton" }, "geometry": { "type": "Point", "coordinates": [ -96.869873556718488, 32.997486049814974 ] } },
{ "type": "Feature", "properties": { "OBJECTID": 26, "NAME": "Sheffield", "GRADE": "Intermediate School", "SYMBOL": 92, "SCHOOL_SYM": 2, "ISD": "Carrollton-Farmers Branch", "Visible": "Yes", "Address": "18110 Kelly Blvd, Dallas, TX 75287", "ISDID": 12, "CampusID": 190, "Status": null, "County": "Denton" }, "geometry": { "type": "Point", "coordinates": [ -96.863625477449972, 33.001636273363523 ] } },
{ "type": "Feature", "properties": { "OBJECTID": 27, "NAME": "Thompson", "GRADE": "Elementary School", "SYMBOL": 98, "SCHOOL_SYM": 1, "ISD": "Carrollton-Farmers Branch", "Visible": "Yes", "Address": "2915 Scott Mill Rd, Carrollton, TX 75007", "ISDID": 12, "CampusID": 191, "Status": null, "County": "Denton" }, "geometry": { "type": "Point", "coordinates": [ -96.880781077317238, 32.994487481552206 ] } },
{ "type": "Feature", "properties": { "OBJECTID": 28, "NAME": "Hilltop", "GRADE": "Elementary School", "SYMBOL": 98, "SCHOOL_SYM": 1, "ISD": "Argyle", "Visible": "Yes", "Address": "1050 Harrison Ln, Argyle, TX 76226", "ISDID": 1, "CampusID": 1, "Status": null, "County": "Denton" }, "geometry": { "type": "Point", "coordinates": [ -97.178411951084684, 33.125435434020204 ] } },
{ "type": "Feature", "properties": { "OBJECTID": 29, "NAME": "Argyle", "GRADE": "High School", "SYMBOL": 91, "SCHOOL_SYM": 3, "ISD": "Argyle", "Visible": "Yes", "Address": "6601 Canyon Falls Dr, Argyle, Texas, 76226", "ISDID": 1, "CampusID": 4, "Status": null, "County": "Denton" }, "geometry": { "type": "Point", "coordinates": [ -97.208589925078911, 33.073266267804698 ] } },
{ "type": "Feature", "properties": { "OBJECTID": 30, "NAME": "Argyle", "GRADE": "Intermediate School", "SYMBOL": 92, "SCHOOL_SYM": 2, "ISD": "Argyle", "Visible": "Yes", "Address": "800 Eagle Dr, Argyle, TX 76226", "ISDID": 1, "CampusID": 3, "Status": null, "County": "Denton" }, "geometry": { "type": "Point", "coordinates": [ -97.18686974201124, 33.124770487759648 ] } },
{ "type": "Feature", "properties": { "OBJECTID": 31, "NAME": "Corinth", "GRADE": "Elementary School", "SYMBOL": 98, "SCHOOL_SYM": 1, "ISD": "Lake Dallas", "Visible": "Yes", "Address": "3501 Cliff Oaks Dr, Corinth, TX 76210", "ISDID": 5, "CampusID": 58, "Status": null, "County": "Denton" }, "geometry": { "type": "Point", "coordinates": [ -97.052557454753483, 33.132867479765252 ] } },
{ "type": "Feature", "properties": { "OBJECTID": 32, "NAME": "Lake Dallas", "GRADE": "High School", "SYMBOL": 91, "SCHOOL_SYM": 3, "ISD": "Lake Dallas", "Visible": "Yes", "Address": "3016 Parkridge Dr, Corinth, TX 76210", "ISDID": 5, "CampusID": 59, "Status": null, "County": "Denton" }, "geometry": { "type": "Point", "coordinates": [ -97.06159086764923, 33.132834434891251 ] } },
{ "type": "Feature", "properties": { "OBJECTID": 33, "NAME": "Lake Dallas", "GRADE": "Middle School", "SYMBOL": 92, "SCHOOL_SYM": 2, "ISD": "Lake Dallas", "Visible": "Yes", "Address": "325 E Hundley Dr, Lake Dallas, TX 75065", "ISDID": 5, "CampusID": 60, "Status": null, "County": "Denton" }, "geometry": { "type": "Point", "coordinates": [ -97.025832940687778, 33.123068414529762 ] } },
{ "type": "Feature", "properties": { "OBJECTID": 34, "NAME": "Homestead", "GRADE": "Elementary School", "SYMBOL": 98, "SCHOOL_SYM": 1, "ISD": "Lewisville", "Visible": "Yes", "Address": "1830 E. Branch Hollow Carrollton, TX 75007", "ISDID": 6, "CampusID": 63, "Status": null, "County": "Denton" }, "geometry": { "type": "Point", "coordinates": [ -96.888202388500559, 33.018703307275388 ] } },
{ "type": "Feature", "properties": { "OBJECTID": 35, "NAME": "Old Settlers", "GRADE": "Elementary School", "SYMBOL": 98, "SCHOOL_SYM": 1, "ISD": "Lewisville", "Visible": "Yes", "Address": "2525 Old Settlers Road Flower Mound, TX 75022", "ISDID": 6, "CampusID": 64, "Status": null, "County": "Denton" }, "geometry": { "type": "Point", "coordinates": [ -97.080977205963052, 33.020416002584149 ] } },
{ "type": "Feature", "properties": { "OBJECTID": 36, "NAME": "Southridge", "GRADE": "Elementary School", "SYMBOL": 98, "SCHOOL_SYM": 1, "ISD": "Lewisville", "Visible": "Yes", "Address": "495 W. Corporate Drive Lewisville, TX 75067", "ISDID": 6, "CampusID": 65, "Status": null, "County": "Denton" }, "geometry": { "type": "Point", "coordinates": [ -97.001812842294612, 33.010739360110065 ] } },
{ "type": "Feature", "properties": { "OBJECTID": 37, "NAME": "Downing", "GRADE": "Middle School", "SYMBOL": 92, "SCHOOL_SYM": 2, "ISD": "Lewisville", "Visible": "Yes", "Address": "5555 Bridlewood Blvd. Flower Mound, TX 75028", "ISDID": 6, "CampusID": 66, "Status": null, "County": "Denton" }, "geometry": { "type": "Point", "coordinates": [ -97.094847322544183, 33.061280824590092 ] } },
{ "type": "Feature", "properties": { "OBJECTID": 38, "NAME": "Liberty", "GRADE": "Elementary School", "SYMBOL": 98, "SCHOOL_SYM": 1, "ISD": "Lewisville", "Visible": "Yes", "Address": "4600 Quail Run Road Flower Mound, TX 75022", "ISDID": 6, "CampusID": 67, "Status": null, "County": "Denton" }, "geometry": { "type": "Point", "coordinates": [ -97.102085938766663, 33.037088465964985 ] } },
{ "type": "Feature", "properties": { "OBJECTID": 39, "NAME": "Durham", "GRADE": "Middle School", "SYMBOL": 92, "SCHOOL_SYM": 2, "ISD": "Lewisville", "Visible": "Yes", "Address": "2075 Edmonds Lane Lewisville, TX 75067", "ISDID": 6, "CampusID": 68, "Status": null, "County": "Denton" }, "geometry": { "type": "Point", "coordinates": [ -97.003362402520921, 33.012023017648978 ] } },
{ "type": "Feature", "properties": { "OBJECTID": 40, "NAME": "Creek Valley", "GRADE": "Middle School", "SYMBOL": 92, "SCHOOL_SYM": 2, "ISD": "Lewisville", "Visible": "Yes", "Address": "4109 Creek Valley Blvd. Carrollton, TX 75010", "ISDID": 6, "CampusID": 69, "Status": null, "County": "Denton" }, "geometry": { "type": "Point", "coordinates": [ -96.925899197230834, 33.021343989017979 ] } },
{ "type": "Feature", "properties": { "OBJECTID": 41, "NAME": "Castle Hills", "GRADE": "Elementary School", "SYMBOL": 98, "SCHOOL_SYM": 1, "ISD": "Lewisville", "Visible": "Yes", "Address": "1025 Holy Grail Drive Lewisville, TX 75056", "ISDID": 6, "CampusID": 70, "Status": null, "County": "Denton" }, "geometry": { "type": "Point", "coordinates": [ -96.896615211811465, 33.031944491358153 ] } },
{ "type": "Feature", "properties": { "OBJECTID": 42, "NAME": "Heritage", "GRADE": "Elementary School", "SYMBOL": 98, "SCHOOL_SYM": 1, "ISD": "Lewisville", "Visible": "Yes", "Address": "100 Barnett Blvd. Highland Village, TX 75077", "ISDID": 6, "CampusID": 71, "Status": null, "County": "Denton" }, "geometry": { "type": "Point", "coordinates": [ -97.072317347653879, 33.078198614728272 ] } },
{ "type": "Feature", "properties": { "OBJECTID": 43, "NAME": "McAuliffe", "GRADE": "Elementary School", "SYMBOL": 98, "SCHOOL_SYM": 1, "ISD": "Lewisville", "Visible": "Yes", "Address": "2300 Briarhill Blvd. Highland Village, TX 75077", "ISDID": 6, "CampusID": 72, "Status": null, "County": "Denton" }, "geometry": { "type": "Point", "coordinates": [ -97.065596771661973, 33.080771389176412 ] } },
{ "type": "Feature", "properties": { "OBJECTID": 44, "NAME": "Highland Village", "GRADE": "Elementary School", "SYMBOL": 98, "SCHOOL_SYM": 1, "ISD": "Lewisville", "Visible": "Yes", "Address": "301 Brazos Blvd. Highland Village, TX 75077", "ISDID": 6, "CampusID": 73, "Status": null, "County": "Denton" }, "geometry": { "type": "Point", "coordinates": [ -97.044352032589472, 33.082378191578584 ] } },
{ "type": "Feature", "properties": { "OBJECTID": 45, "NAME": "Ethridge", "GRADE": "Elementary School", "SYMBOL": 98, "SCHOOL_SYM": 1, "ISD": "Lewisville", "Visible": "Yes", "Address": "6001 Ethridge The Colony, TX 75056", "ISDID": 6, "CampusID": 74, "Status": null, "County": "Denton" }, "geometry": { "type": "Point", "coordinates": [ -96.910835282250289, 33.088689503366325 ] } },
{ "type": "Feature", "properties": { "OBJECTID": 46, "NAME": "Stewart's Creek", "GRADE": "Elementary School", "SYMBOL": 98, "SCHOOL_SYM": 1, "ISD": "Lewisville", "Visible": "No", "Address": "4431 Augusta Street The Colony, TX 75056", "ISDID": 6, "CampusID": 75, "Status": "Inactive", "County": "Denton" }, "geometry": { "type": "Point", "coordinates": [ -96.89875675500312, 33.097926871084539 ] } },
{ "type": "Feature", "properties": { "OBJECTID": 47, "NAME": "Peters Colony", "GRADE": "Elementary School", "SYMBOL": 98, "SCHOOL_SYM": 1, "ISD": "Lewisville", "Visible": "Yes", "Address": "5101 Nash Drive The Colony, TX 75056", "ISDID": 6, "CampusID": 76, "Status": null, "County": "Denton" }, "geometry": { "type": "Point", "coordinates": [ -96.881068515139404, 33.092391820545842 ] } },
{ "type": "Feature", "properties": { "OBJECTID": 48, "NAME": "Camey", "GRADE": "Elementary School", "SYMBOL": 98, "SCHOOL_SYM": 1, "ISD": "Lewisville", "Visible": "Yes", "Address": "4949 Arbor Glen Road The Colony, TX 75056", "ISDID": 6, "CampusID": 77, "Status": null, "County": "Denton" }, "geometry": { "type": "Point", "coordinates": [ -96.885906903815709, 33.077666495734086 ] } },
{ "type": "Feature", "properties": { "OBJECTID": 49, "NAME": "Owen", "GRADE": "Elementary School", "SYMBOL": 98, "SCHOOL_SYM": 1, "ISD": "Lewisville", "Visible": "Yes", "Address": "5640 Squires The Colony, TX 75056", "ISDID": 6, "CampusID": 78, "Status": null, "County": "Denton" }, "geometry": { "type": "Point", "coordinates": [ -96.867164880357095, 33.106480500550418 ] } },
{ "type": "Feature", "properties": { "OBJECTID": 50, "NAME": "Flower Mound", "GRADE": "Elementary School", "SYMBOL": 98, "SCHOOL_SYM": 1, "ISD": "Lewisville", "Visible": "Yes", "Address": "4101 Churchill Flower Mound, TX 75028", "ISDID": 6, "CampusID": 79, "Status": null, "County": "Denton" }, "geometry": { "type": "Point", "coordinates": [ -97.076270350810631, 33.043430424617029 ] } },
{ "type": "Feature", "properties": { "OBJECTID": 51, "NAME": "Timber Creek", "GRADE": "Elementary School", "SYMBOL": 98, "SCHOOL_SYM": 1, "ISD": "Lewisville", "Visible": "Yes", "Address": "1900 Timber Creek Road Flower Mound, TX 75028", "ISDID": 6, "CampusID": 80, "Status": null, "County": "Denton" }, "geometry": { "type": "Point", "coordinates": [ -97.059593279976085, 33.043957781104218 ] } },
{ "type": "Feature", "properties": { "OBJECTID": 52, "NAME": "Degan", "GRADE": "Elementary School", "SYMBOL": 98, "SCHOOL_SYM": 1, "ISD": "Lewisville", "Visible": "Yes", "Address": "1680 College Pkwy Lewisville, TX 75077", "ISDID": 6, "CampusID": 81, "Status": null, "County": "Denton" }, "geometry": { "type": "Point", "coordinates": [ -97.039594967046241, 33.047746885756816 ] } },
{ "type": "Feature", "properties": { "OBJECTID": 53, "NAME": "Donald", "GRADE": "Elementary School", "SYMBOL": 98, "SCHOOL_SYM": 1, "ISD": "Lewisville", "Visible": "Yes", "Address": "2400 Forest Vista Drive Flower Mound, TX 75028", "ISDID": 6, "CampusID": 82, "Status": null, "County": "Denton" }, "geometry": { "type": "Point", "coordinates": [ -97.065755275506064, 33.019809523379877 ] } },
{ "type": "Feature", "properties": { "OBJECTID": 54, "NAME": "Lakeland", "GRADE": "Elementary School", "SYMBOL": 98, "SCHOOL_SYM": 1, "ISD": "Lewisville", "Visible": "Yes", "Address": "800 Fox Ave. Lewisville, TX 75067", "ISDID": 6, "CampusID": 83, "Status": null, "County": "Denton" }, "geometry": { "type": "Point", "coordinates": [ -97.008983679278543, 33.034262718546039 ] } },
{ "type": "Feature", "properties": { "OBJECTID": 56, "NAME": "Garden Ridge", "GRADE": "Elementary School", "SYMBOL": 98, "SCHOOL_SYM": 1, "ISD": "Lewisville", "Visible": "Yes", "Address": "2220 S. Garden Ridge Blvd. Flower Mound, TX 75028", "ISDID": 6, "CampusID": 85, "Status": null, "County": "Denton" }, "geometry": { "type": "Point", "coordinates": [ -97.035197970705084, 33.016473087130102 ] } },
{ "type": "Feature", "properties": { "OBJECTID": 57, "NAME": "Creekside", "GRADE": "Elementary School", "SYMBOL": 98, "SCHOOL_SYM": 1, "ISD": "Lewisville", "Visible": "Yes", "Address": "901 Valley View Lewisville, TX 75067", "ISDID": 6, "CampusID": 86, "Status": null, "County": "Denton" }, "geometry": { "type": "Point", "coordinates": [ -97.006749565017174, 33.013970843591338 ] } },
{ "type": "Feature", "properties": { "OBJECTID": 58, "NAME": "Central", "GRADE": "Elementary School", "SYMBOL": 98, "SCHOOL_SYM": 1, "ISD": "Lewisville", "Visible": "Yes", "Address": "400 High School Drive Lewisville, TX 75057", "ISDID": 6, "CampusID": 87, "Status": null, "County": "Denton" }, "geometry": { "type": "Point", "coordinates": [ -96.999276548385154, 33.03944210181389 ] } },
{ "type": "Feature", "properties": { "OBJECTID": 59, "NAME": "Student Success Center", "GRADE": "Specialty School", "SYMBOL": 98, "SCHOOL_SYM": 1, "ISD": "Lewisville", "Visible": "Yes", "Address": "350 W College St, Lewisville, TX 75057", "ISDID": 6, "CampusID": 88, "Status": "Moved", "County": "Denton" }, "geometry": { "type": "Point", "coordinates": [ -97.000517130046148, 33.048905090059982 ] } },
{ "type": "Feature", "properties": { "OBJECTID": 60, "NAME": "Polser", "GRADE": "Elementary School", "SYMBOL": 98, "SCHOOL_SYM": 1, "ISD": "Lewisville", "Visible": "Yes", "Address": "1520 Polser Rd, Carrollton, TX 75010", "ISDID": 6, "CampusID": 89, "Status": null, "County": "Denton" }, "geometry": { "type": "Point", "coordinates": [ -96.900357240248411, 33.026115728154494 ] } },
{ "type": "Feature", "properties": { "OBJECTID": 61, "NAME": "Indian Creek", "GRADE": "Elementary School", "SYMBOL": 98, "SCHOOL_SYM": 1, "ISD": "Lewisville", "Visible": "Yes", "Address": "2050 Arbor Creek Carrollton, TX 75010", "ISDID": 6, "CampusID": 90, "Status": null, "County": "Denton" }, "geometry": { "type": "Point", "coordinates": [ -96.878188888853174, 33.033059203372325 ] } },
{ "type": "Feature", "properties": { "OBJECTID": 62, "NAME": "Wellington", "GRADE": "Elementary School", "SYMBOL": 98, "SCHOOL_SYM": 1, "ISD": "Lewisville", "Visible": "Yes", "Address": "3900 Kenwood Dr, Flower Mound, TX 75022", "ISDID": 6, "CampusID": 91, "Status": null, "County": "Denton" }, "geometry": { "type": "Point", "coordinates": [ -97.092587604505866, 33.03067930363909 ] } },
{ "type": "Feature", "properties": { "OBJECTID": 63, "NAME": "Forest Vista", "GRADE": "Elementary School", "SYMBOL": 98, "SCHOOL_SYM": 1, "ISD": "Lewisville", "Visible": "Yes", "Address": "900 Forest Vista Dr, Flower Mound, TX 75028", "ISDID": 6, "CampusID": 92, "Status": null, "County": "Denton" }, "geometry": { "type": "Point", "coordinates": [ -97.042184716391034, 33.02191262229406 ] } },
{ "type": "Feature", "properties": { "OBJECTID": 64, "NAME": "Parkway", "GRADE": "Elementary School", "SYMBOL": 98, "SCHOOL_SYM": 1, "ISD": "Lewisville", "Visible": "Yes", "Address": "2100 S Valley Pkwy, Lewisville, TX 75067", "ISDID": 6, "CampusID": 93, "Status": null, "County": "Denton" }, "geometry": { "type": "Point", "coordinates": [ -97.020632995804149, 33.00912366188188 ] } },
{ "type": "Feature", "properties": { "OBJECTID": 65, "NAME": "Valley Ridge", "GRADE": "Elementary School", "SYMBOL": 98, "SCHOOL_SYM": 1, "ISD": "Lewisville", "Visible": "Yes", "Address": "1604 N Garden Ridge Blvd, Lewisville, TX 75077", "ISDID": 6, "CampusID": 94, "Status": null, "County": "Denton" }, "geometry": { "type": "Point", "coordinates": [ -97.037058037982263, 33.067088717515041 ] } },
{ "type": "Feature", "properties": { "OBJECTID": 66, "NAME": "Marcus", "GRADE": "High School", "SYMBOL": 91, "SCHOOL_SYM": 3, "ISD": "Lewisville", "Visible": "Yes", "Address": "5707 Morriss Rd, Flower Mound, TX 75028", "ISDID": 6, "CampusID": 95, "Status": null, "County": "Denton" }, "geometry": { "type": "Point", "coordinates": [ -97.06288175417086, 33.064495644086136 ] } },
{ "type": "Feature", "properties": { "OBJECTID": 67, "NAME": "The Colony", "GRADE": "High School", "SYMBOL": 91, "SCHOOL_SYM": 3, "ISD": "Lewisville", "Visible": "Yes", "Address": "4301 Blair Oaks Dr, The Colony, TX 75056", "ISDID": 6, "CampusID": 96, "Status": null, "County": "Denton" }, "geometry": { "type": "Point", "coordinates": [ -96.88588417860791, 33.075423051923977 ] } },
{ "type": "Feature", "properties": { "OBJECTID": 68, "NAME": "Lewisville", "GRADE": "High School", "SYMBOL": 91, "SCHOOL_SYM": 3, "ISD": "Lewisville", "Visible": "Yes", "Address": "1098 W Main St, Lewisville, TX 75067", "ISDID": 6, "CampusID": 97, "Status": null, "County": "Denton" }, "geometry": { "type": "Point", "coordinates": [ -97.019814156750954, 33.041162333562951 ] } },
{ "type": "Feature", "properties": { "OBJECTID": 69, "NAME": "Briarhill", "GRADE": "Middle School", "SYMBOL": 92, "SCHOOL_SYM": 2, "ISD": "Lewisville", "Visible": "Yes", "Address": "2100 Briarhill Blvd, Lewisville, TX 75077", "ISDID": 6, "CampusID": 98, "Status": null, "County": "Denton" }, "geometry": { "type": "Point", "coordinates": [ -97.06666060588239, 33.075875549541713 ] } },
{ "type": "Feature", "properties": { "OBJECTID": 70, "NAME": "Lamar", "GRADE": "Middle School", "SYMBOL": 92, "SCHOOL_SYM": 2, "ISD": "Lewisville", "Visible": "Yes", "Address": "4000 Timber Creek Rd, Flower Mound, TX 75028", "ISDID": 6, "CampusID": 99, "Status": null, "County": "Denton" }, "geometry": { "type": "Point", "coordinates": [ -97.054136986989789, 33.053438852974629 ] } },
{ "type": "Feature", "properties": { "OBJECTID": 71, "NAME": "Lakeview", "GRADE": "Middle School", "SYMBOL": 92, "SCHOOL_SYM": 2, "ISD": "Lewisville", "Visible": "Yes", "Address": "4300 Keys Dr, The Colony, TX 75056", "ISDID": 6, "CampusID": 100, "Status": null, "County": "Denton" }, "geometry": { "type": "Point", "coordinates": [ -96.901502534352815, 33.097207485249491 ] } },
{ "type": "Feature", "properties": { "OBJECTID": 72, "NAME": "Griffin", "GRADE": "Middle School", "SYMBOL": 92, "SCHOOL_SYM": 2, "ISD": "Lewisville", "Visible": "Yes", "Address": "5105 North Colony Road The Colony, TX 75056", "ISDID": 6, "CampusID": 101, "Status": null, "County": "Denton" }, "geometry": { "type": "Point", "coordinates": [ -96.880363472803054, 33.096695777455167 ] } },
{ "type": "Feature", "properties": { "OBJECTID": 73, "NAME": "McKamy", "GRADE": "Middle School", "SYMBOL": 92, "SCHOOL_SYM": 2, "ISD": "Lewisville", "Visible": "Yes", "Address": "2401 Old Settlers Rd, Flower Mound, TX 75022", "ISDID": 6, "CampusID": 102, "Status": null, "County": "Denton" }, "geometry": { "type": "Point", "coordinates": [ -97.080681029058582, 33.018893738964536 ] } },
{ "type": "Feature", "properties": { "OBJECTID": 74, "NAME": "Forestwood", "GRADE": "Middle School", "SYMBOL": 92, "SCHOOL_SYM": 2, "ISD": "Lewisville", "Visible": "Yes", "Address": "2810 Morriss Rd, Flower Mound, TX 75028", "ISDID": 6, "CampusID": 103, "Status": null, "County": "Denton" }, "geometry": { "type": "Point", "coordinates": [ -97.054958420373239, 33.023834357934888 ] } },
{ "type": "Feature", "properties": { "OBJECTID": 75, "NAME": "Hedrick", "GRADE": "Middle School", "SYMBOL": 92, "SCHOOL_SYM": 2, "ISD": "Lewisville", "Visible": "Yes", "Address": "1526 Bellaire Blvd, Lewisville, TX 75067", "ISDID": 6, "CampusID": 104, "Status": null, "County": "Denton" }, "geometry": { "type": "Point", "coordinates": [ -97.024233709856418, 33.027050875990035 ] } },
{ "type": "Feature", "properties": { "OBJECTID": 76, "NAME": "Arbor Creek", "GRADE": "Middle School", "SYMBOL": 92, "SCHOOL_SYM": 2, "ISD": "Lewisville", "Visible": "Yes", "Address": "2109 Arbor Creek Dr, Carrollton, TX 75010", "ISDID": 6, "CampusID": 105, "Status": null, "County": "Denton" }, "geometry": { "type": "Point", "coordinates": [ -96.873691337821398, 33.034677511088638 ] } },
{ "type": "Feature", "properties": { "OBJECTID": 77, "NAME": "Huffines", "GRADE": "Middle School", "SYMBOL": 92, "SCHOOL_SYM": 2, "ISD": "Lewisville", "Visible": "Yes", "Address": "1440 N Valley Pkwy, Lewisville, TX 75077", "ISDID": 6, "CampusID": 106, "Status": null, "County": "Denton" }, "geometry": { "type": "Point", "coordinates": [ -97.031793926850497, 33.055713743520862 ] } },
{ "type": "Feature", "properties": { "OBJECTID": 78, "NAME": "Bluebonnet", "GRADE": "Elementary School", "SYMBOL": 98, "SCHOOL_SYM": 1, "ISD": "Lewisville", "Visible": "Yes", "Address": "2000 Spinks Rd, Flower Mound, TX 75028", "ISDID": 6, "CampusID": 107, "Status": null, "County": "Denton" }, "geometry": { "type": "Point", "coordinates": [ -97.059130758828431, 32.999805841899054 ] } },
{ "type": "Feature", "properties": { "OBJECTID": 79, "NAME": "Bridlewood", "GRADE": "Elementary School", "SYMBOL": 98, "SCHOOL_SYM": 1, "ISD": "Lewisville", "Visible": "Yes", "Address": "4901 Remington Park Dr, Flower Mound, TX 75028", "ISDID": 6, "CampusID": 108, "Status": null, "County": "Denton" }, "geometry": { "type": "Point", "coordinates": [ -97.098012453046167, 33.051414586473271 ] } },
{ "type": "Feature", "properties": { "OBJECTID": 80, "NAME": "Flower Mound", "GRADE": "High School", "SYMBOL": 91, "SCHOOL_SYM": 3, "ISD": "Lewisville", "Visible": "Yes", "Address": "3411 Peters Colony Rd, Flower Mound, TX 75022", "ISDID": 6, "CampusID": 109, "Status": null, "County": "Denton" }, "geometry": { "type": "Point", "coordinates": [ -97.081694987731424, 33.032937605059729 ] } },
{ "type": "Feature", "properties": { "OBJECTID": 81, "NAME": "Hebron", "GRADE": "High School", "SYMBOL": 91, "SCHOOL_SYM": 3, "ISD": "Lewisville", "Visible": "Yes", "Address": "4207 Plano Pkwy, Carrollton, TX 75010", "ISDID": 6, "CampusID": 110, "Status": null, "County": "Denton" }, "geometry": { "type": "Point", "coordinates": [ -96.85835004451998, 33.035580477689059 ] } },
{ "type": "Feature", "properties": { "OBJECTID": 82, "NAME": "Hebron Valley", "GRADE": "Elementary School", "SYMBOL": 98, "SCHOOL_SYM": 1, "ISD": "Lewisville", "Visible": "Yes", "Address": "4108 Creek Valley Blvd, Carrollton, TX 75010", "ISDID": 6, "CampusID": 111, "Status": null, "County": "Denton" }, "geometry": { "type": "Point", "coordinates": [ -96.923650020536229, 33.021152217233009 ] } },
{ "type": "Feature", "properties": { "OBJECTID": 83, "NAME": "Shadow Ridge", "GRADE": "Middle School", "SYMBOL": 92, "SCHOOL_SYM": 2, "ISD": "Lewisville", "Visible": "Yes", "Address": "2050 Aberdeen Dr, Flower Mound, TX 75028", "ISDID": 6, "CampusID": 112, "Status": null, "County": "Denton" }, "geometry": { "type": "Point", "coordinates": [ -97.060815937801536, 33.001816877438181 ] } },
{ "type": "Feature", "properties": { "OBJECTID": 84, "NAME": "Morningside", "GRADE": "Elementary School", "SYMBOL": 98, "SCHOOL_SYM": 1, "ISD": "Lewisville", "Visible": "Yes", "Address": "6350 Paige Rd, The Colony, TX 75056", "ISDID": 6, "CampusID": 113, "Status": null, "County": "Denton" }, "geometry": { "type": "Point", "coordinates": [ -96.874516830416269, 33.09131428141422 ] } },
{ "type": "Feature", "properties": { "OBJECTID": 85, "NAME": "Prairie Trail", "GRADE": "Elementary School", "SYMBOL": 98, "SCHOOL_SYM": 1, "ISD": "Lewisville", "Visible": "Yes", "Address": "5555 Timber Creek Rd, Flower Mound, TX 75028", "ISDID": 6, "CampusID": 114, "Status": null, "County": "Denton" }, "geometry": { "type": "Point", "coordinates": [ -97.052535018977991, 33.062020218240505 ] } },
{ "type": "Feature", "properties": { "OBJECTID": 86, "NAME": "Coyote Ridge", "GRADE": "Elementary School", "SYMBOL": 98, "SCHOOL_SYM": 1, "ISD": "Lewisville", "Visible": "Yes", "Address": "4520 Maumee Dr, Carrollton, TX 75010", "ISDID": 6, "CampusID": 115, "Status": null, "County": "Denton" }, "geometry": { "type": "Point", "coordinates": [ -96.920573027421185, 33.034191768058506 ] } },
{ "type": "Feature", "properties": { "OBJECTID": 87, "NAME": "Hicks", "GRADE": "Elementary School", "SYMBOL": 98, "SCHOOL_SYM": 1, "ISD": "Lewisville", "Visible": "Yes", "Address": "3651 Compass Dr, Frisco, TX 75034", "ISDID": 6, "CampusID": 116, "Status": null, "County": "Denton" }, "geometry": { "type": "Point", "coordinates": [ -96.846355758905787, 33.109734075780125 ] } },
{ "type": "Feature", "properties": { "OBJECTID": 88, "NAME": "Vickery", "GRADE": "Elementary School", "SYMBOL": 98, "SCHOOL_SYM": 1, "ISD": "Lewisville", "Visible": "Yes", "Address": "3301 Wager Rd, Flower Mound, TX 75028", "ISDID": 6, "CampusID": 117, "Status": null, "County": "Denton" }, "geometry": { "type": "Point", "coordinates": [ -97.03864549020858, 33.031553618137458 ] } },
{ "type": "Feature", "properties": { "OBJECTID": 89, "NAME": "Killian", "GRADE": "Middle School", "SYMBOL": 92, "SCHOOL_SYM": 2, "ISD": "Lewisville", "Visible": "Yes", "Address": "2561 FM 544, Lewisville, TX 75056", "ISDID": 6, "CampusID": 118, "Status": null, "County": "Denton" }, "geometry": { "type": "Point", "coordinates": [ -96.908188070456902, 33.047338679659703 ] } },
{ "type": "Feature", "properties": { "OBJECTID": 90, "NAME": "Independence", "GRADE": "Elementary School", "SYMBOL": 98, "SCHOOL_SYM": 1, "ISD": "Lewisville", "Visible": "Yes", "Address": "2511 Windhaven Pkwy, Lewisville, TX 75056", "ISDID": 6, "CampusID": 119, "Status": null, "County": "Denton" }, "geometry": { "type": "Point", "coordinates": [ -96.910744010257218, 33.050070993018835 ] } },
{ "type": "Feature", "properties": { "OBJECTID": 91, "NAME": "Hebron", "GRADE": "9th Grade Center", "SYMBOL": 91, "SCHOOL_SYM": 3, "ISD": "Lewisville", "Visible": "Yes", "Address": "4211 Plano Pkwy, Carrollton, TX 75010", "ISDID": 6, "CampusID": 120, "Status": null, "County": "Denton" }, "geometry": { "type": "Point", "coordinates": [ -96.860502860494918, 33.03728121242213 ] } },
{ "type": "Feature", "properties": { "OBJECTID": 92, "NAME": "Lewisville", "GRADE": "Elementary School", "SYMBOL": 98, "SCHOOL_SYM": 1, "ISD": "Lewisville", "Visible": "Yes", "Address": "285 Country Ridge Rd, Lewisville, TX 75067", "ISDID": 6, "CampusID": 121, "Status": null, "County": "Denton" }, "geometry": { "type": "Point", "coordinates": [ -96.996378742164055, 33.022460759471244 ] } },
{ "type": "Feature", "properties": { "OBJECTID": 93, "NAME": "Nette Shultz", "GRADE": "Elementary School", "SYMBOL": 98, "SCHOOL_SYM": 1, "ISD": "Denton", "Visible": "Yes", "Address": "1502 Hanover Dr, Denton, TX 76209", "ISDID": 3, "CampusID": 11, "Status": "Name Change", "County": "Denton" }, "geometry": { "type": "Point", "coordinates": [ -97.113432807353377, 33.241456278458287 ] } },
{ "type": "Feature", "properties": { "OBJECTID": 94, "NAME": "Ginnings", "GRADE": "Elementary School", "SYMBOL": 98, "SCHOOL_SYM": 1, "ISD": "Denton", "Visible": "Yes", "Address": "2525 Yellowstone Pl, Denton, TX 76209", "ISDID": 3, "CampusID": 12, "Status": null, "County": "Denton" }, "geometry": { "type": "Point", "coordinates": [ -97.121290868117995, 33.252508070594082 ] } },
{ "type": "Feature", "properties": { "OBJECTID": 95, "NAME": "Evers Park", "GRADE": "Elementary School", "SYMBOL": 98, "SCHOOL_SYM": 1, "ISD": "Denton", "Visible": "Yes", "Address": "3300 Evers Pkwy, Denton, TX 76207", "ISDID": 3, "CampusID": 13, "Status": null, "County": "Denton" }, "geometry": { "type": "Point", "coordinates": [ -97.134602858012272, 33.247589543213401 ] } },
{ "type": "Feature", "properties": { "OBJECTID": 96, "NAME": "Hodge", "GRADE": "Elementary School", "SYMBOL": 98, "SCHOOL_SYM": 1, "ISD": "Denton", "Visible": "Yes", "Address": "3900 Grant Pkwy, Denton, TX 76208", "ISDID": 3, "CampusID": 14, "Status": null, "County": "Denton" }, "geometry": { "type": "Point", "coordinates": [ -97.089430197942931, 33.25156855410188 ] } },
{ "type": "Feature", "properties": { "OBJECTID": 97, "NAME": "Alexander", "GRADE": "Elementary School", "SYMBOL": 98, "SCHOOL_SYM": 1, "ISD": "Denton", "Visible": "Yes", "Address": "800 Mack Place, Denton, TX 76209", "ISDID": 3, "CampusID": 15, "Status": null, "County": "Denton" }, "geometry": { "type": "Point", "coordinates": [ -97.105184459764317, 33.220037995102189 ] } },
{ "type": "Feature", "properties": { "OBJECTID": 98, "NAME": "Borman", "GRADE": "Elementary School", "SYMBOL": 98, "SCHOOL_SYM": 1, "ISD": "Denton", "Visible": "Yes", "Address": "1201 Parvin St, Denton, TX 76205", "ISDID": 3, "CampusID": 16, "Status": null, "County": "Denton" }, "geometry": { "type": "Point", "coordinates": [ -97.14597845060419, 33.190262231299862 ] } },
{ "type": "Feature", "properties": { "OBJECTID": 99, "NAME": "Houston", "GRADE": "Elementary School", "SYMBOL": 98, "SCHOOL_SYM": 1, "ISD": "Denton", "Visible": "Yes", "Address": "3100 Teasley Ln, Denton, TX 76205", "ISDID": 3, "CampusID": 17, "Status": null, "County": "Denton" }, "geometry": { "type": "Point", "coordinates": [ -97.115992705912902, 33.175095535333632 ] } },
{ "type": "Feature", "properties": { "OBJECTID": 100, "NAME": "McNair", "GRADE": "Elementary School", "SYMBOL": 98, "SCHOOL_SYM": 1, "ISD": "Denton", "Visible": "Yes", "Address": "1212 Hickory Creek Rd, Denton, TX 76210", "ISDID": 3, "CampusID": 18, "Status": null, "County": "Denton" }, "geometry": { "type": "Point", "coordinates": [ -97.120830731244055, 33.146074684427127 ] } },
{ "type": "Feature", "properties": { "OBJECTID": 101, "NAME": "Denton", "GRADE": "High School", "SYMBOL": 91, "SCHOOL_SYM": 3, "ISD": "Denton", "Visible": "Yes", "Address": "1007 Fulton St, Denton, TX 76201", "ISDID": 3, "CampusID": 19, "Status": null, "County": "Denton" }, "geometry": { "type": "Point", "coordinates": [ -97.144813095937891, 33.224771707297926 ] } },
{ "type": "Feature", "properties": { "OBJECTID": 102, "NAME": "Ryan", "GRADE": "High School", "SYMBOL": 91, "SCHOOL_SYM": 3, "ISD": "Denton", "Visible": "Yes", "Address": "5101 E McKinney St, Denton, TX 76208", "ISDID": 3, "CampusID": 20, "Status": null, "County": "Denton" }, "geometry": { "type": "Point", "coordinates": [ -97.075791442912845, 33.211304751371053 ] } },
{ "type": "Feature", "properties": { "OBJECTID": 103, "NAME": "Strickland", "GRADE": "Middle School", "SYMBOL": 92, "SCHOOL_SYM": 2, "ISD": "Denton", "Visible": "Yes", "Address": "324 E Windsor Dr, Denton, TX 76209", "ISDID": 3, "CampusID": 21, "Status": null, "County": "Denton" }, "geometry": { "type": "Point", "coordinates": [ -97.128082245668608, 33.243429351110798 ] } },
{ "type": "Feature", "properties": { "OBJECTID": 104, "NAME": "McMath", "GRADE": "Middle School", "SYMBOL": 92, "SCHOOL_SYM": 2, "ISD": "Denton", "Visible": "Yes", "Address": "1900 Jason Dr, Denton, TX 76205", "ISDID": 3, "CampusID": 22, "Status": null, "County": "Denton" }, "geometry": { "type": "Point", "coordinates": [ -97.127241337943204, 33.188699847572209 ] } },
{ "type": "Feature", "properties": { "OBJECTID": 105, "NAME": "Calhoun", "GRADE": "Middle School", "SYMBOL": 92, "SCHOOL_SYM": 2, "ISD": "Denton", "Visible": "Yes", "Address": "709 W Congress St, Denton, TX 76201", "ISDID": 3, "CampusID": 23, "Status": null, "County": "Denton" }, "geometry": { "type": "Point", "coordinates": [ -97.139834912820461, 33.21864418438161 ] } },
{ "type": "Feature", "properties": { "OBJECTID": 106, "NAME": "Crownover", "GRADE": "Middle School", "SYMBOL": 92, "SCHOOL_SYM": 2, "ISD": "Denton", "Visible": "Yes", "Address": "1901 Creekside Dr, Corinth, TX 76210", "ISDID": 3, "CampusID": 24, "Status": null, "County": "Denton" }, "geometry": { "type": "Point", "coordinates": [ -97.081943045940733, 33.147575106760826 ] } },
{ "type": "Feature", "properties": { "OBJECTID": 107, "NAME": "Guyer", "GRADE": "High School", "SYMBOL": 91, "SCHOOL_SYM": 3, "ISD": "Denton", "Visible": "Yes", "Address": "7501 Teasley Ln, Denton, TX 76210", "ISDID": 3, "CampusID": 25, "Status": null, "County": "Denton" }, "geometry": { "type": "Point", "coordinates": [ -97.103470748947075, 33.135247271229531 ] } },
{ "type": "Feature", "properties": { "OBJECTID": 108, "NAME": "Navo", "GRADE": "Middle School", "SYMBOL": 92, "SCHOOL_SYM": 2, "ISD": "Denton", "Visible": "Yes", "Address": "1701 Navo Road, Aubrey, TX 76227", "ISDID": 3, "CampusID": 26, "Status": null, "County": "Denton" }, "geometry": { "type": "Point", "coordinates": [ -96.92882137021364, 33.227690145640409 ] } },
{ "type": "Feature", "properties": { "OBJECTID": 109, "NAME": "Savannah", "GRADE": "Elementary School", "SYMBOL": 98, "SCHOOL_SYM": 1, "ISD": "Denton", "Visible": "Yes", "Address": "1101 Cotton Exchange Dr, Aubrey, TX 76227", "ISDID": 3, "CampusID": 27, "Status": null, "County": "Denton" }, "geometry": { "type": "Point", "coordinates": [ -96.912181529294728, 33.225020009905563 ] } },
{ "type": "Feature", "properties": { "OBJECTID": 110, "NAME": "Pecan Creek", "GRADE": "Elementary School", "SYMBOL": 98, "SCHOOL_SYM": 1, "ISD": "Denton", "Visible": "Yes", "Address": "4400 Lakeview Blvd, Denton, TX 76208", "ISDID": 3, "CampusID": 28, "Status": null, "County": "Denton" }, "geometry": { "type": "Point", "coordinates": [ -97.066223754993288, 33.170503379124902 ] } },
{ "type": "Feature", "properties": { "OBJECTID": 111, "NAME": "Hawk", "GRADE": "Elementary School", "SYMBOL": 98, "SCHOOL_SYM": 1, "ISD": "Denton", "Visible": "Yes", "Address": "2300 Oakmont Dr, Corinth, TX 76210", "ISDID": 3, "CampusID": 29, "Status": null, "County": "Denton" }, "geometry": { "type": "Point", "coordinates": [ -97.084467834998065, 33.147969722580832 ] } },
{ "type": "Feature", "properties": { "OBJECTID": 112, "NAME": "Fred Moore", "GRADE": "High School", "SYMBOL": 91, "SCHOOL_SYM": 3, "ISD": "Denton", "Visible": "Yes", "Address": "815 Cross Timber St, Denton, TX 76205", "ISDID": 3, "CampusID": 30, "Status": null, "County": "Denton" }, "geometry": { "type": "Point", "coordinates": [ -97.126599491195947, 33.207012933334603 ] } },
{ "type": "Feature", "properties": { "OBJECTID": 113, "NAME": "W. S. Ryan", "GRADE": "Elementary School", "SYMBOL": 98, "SCHOOL_SYM": 1, "ISD": "Denton", "Visible": "Yes", "Address": "201 W Ryan Rd, Denton, TX 76210", "ISDID": 3, "CampusID": 31, "Status": null, "County": "Denton" }, "geometry": { "type": "Point", "coordinates": [ -97.135108951375074, 33.161501002563043 ] } },
{ "type": "Feature", "properties": { "OBJECTID": 114, "NAME": "L.A. Nelson", "GRADE": "Elementary School", "SYMBOL": 98, "SCHOOL_SYM": 1, "ISD": "Denton", "Visible": "Yes", "Address": "3909 Teasley Ln, Denton, TX 76210", "ISDID": 3, "CampusID": 32, "Status": null, "County": "Denton" }, "geometry": { "type": "Point", "coordinates": [ -97.105474872303049, 33.162644963710015 ] } },
{ "type": "Feature", "properties": { "OBJECTID": 115, "NAME": "Paloma Creek", "GRADE": "Elementary School", "SYMBOL": 98, "SCHOOL_SYM": 1, "ISD": "Denton", "Visible": "Yes", "Address": "1600 Navo Road, Aubrey, TX 76227", "ISDID": 3, "CampusID": 33, "Status": null, "County": "Denton" }, "geometry": { "type": "Point", "coordinates": [ -96.930324872087354, 33.228212676535819 ] } },
{ "type": "Feature", "properties": { "OBJECTID": 116, "NAME": "Blanton", "GRADE": "Elementary School", "SYMBOL": 98, "SCHOOL_SYM": 1, "ISD": "Denton", "Visible": "Yes", "Address": "9501 Stacee Ln, Argyle, TX 76226", "ISDID": 3, "CampusID": 34, "Status": null, "County": "Denton" }, "geometry": { "type": "Point", "coordinates": [ -97.124147557282583, 33.114449505705224 ] } },
{ "type": "Feature", "properties": { "OBJECTID": 117, "NAME": "Harpool", "GRADE": "Middle School", "SYMBOL": 92, "SCHOOL_SYM": 2, "ISD": "Denton", "Visible": "Yes", "Address": "9601 Stacee Ln, Lantana, TX 76226", "ISDID": 3, "CampusID": 35, "Status": null, "County": "Denton" }, "geometry": { "type": "Point", "coordinates": [ -97.123678173430207, 33.116649478976363 ] } },
{ "type": "Feature", "properties": { "OBJECTID": 118, "NAME": "Dodd", "GRADE": "Elementary School", "SYMBOL": 92, "SCHOOL_SYM": 1, "ISD": "Krum", "Visible": "Yes", "Address": "915 E McCart St, Krum, TX 76249", "ISDID": 4, "CampusID": 53, "Status": null, "County": "Denton" }, "geometry": { "type": "Point", "coordinates": [ -97.226067096931999, 33.260307240169936 ] } },
{ "type": "Feature", "properties": { "OBJECTID": 119, "NAME": "Krum", "GRADE": "Middle School", "SYMBOL": 92, "SCHOOL_SYM": 2, "ISD": "Krum", "Visible": "Yes", "Address": "805 E McCart St, Krum, TX 76249", "ISDID": 4, "CampusID": 54, "Status": null, "County": "Denton" }, "geometry": { "type": "Point", "coordinates": [ -97.229113606339411, 33.26021867173057 ] } },
{ "type": "Feature", "properties": { "OBJECTID": 120, "NAME": "Dyer", "GRADE": "Elementary School", "SYMBOL": 98, "SCHOOL_SYM": 1, "ISD": "Krum", "Visible": "Yes", "Address": "304 N 3rd St, Krum, TX 76249", "ISDID": 4, "CampusID": 55, "Status": null, "County": "Denton" }, "geometry": { "type": "Point", "coordinates": [ -97.239490811386361, 33.264408329171424 ] } },
{ "type": "Feature", "properties": { "OBJECTID": 121, "NAME": "Ponder", "GRADE": "High School", "SYMBOL": 91, "SCHOOL_SYM": 3, "ISD": "Ponder", "Visible": "Yes", "Address": "300 W Bailey St, Ponder, TX 76259", "ISDID": 10, "CampusID": 169, "Status": null, "County": "Denton" }, "geometry": { "type": "Point", "coordinates": [ -97.291284653573769, 33.185220503044434 ] } },
{ "type": "Feature", "properties": { "OBJECTID": 122, "NAME": "Ponder", "GRADE": "Elementary School", "SYMBOL": 98, "SCHOOL_SYM": 1, "ISD": "Ponder", "Visible": "Yes", "Address": "401 W Bailey St, Ponder, TX 76259", "ISDID": 10, "CampusID": 170, "Status": null, "County": "Denton" }, "geometry": { "type": "Point", "coordinates": [ -97.294076597256421, 33.182750248155195 ] } },
{ "type": "Feature", "properties": { "OBJECTID": 123, "NAME": "Ponder", "GRADE": "Junior High", "SYMBOL": 92, "SCHOOL_SYM": 2, "ISD": "Ponder", "Visible": "Yes", "Address": "501 Shaffner St, Ponder, TX 76259", "ISDID": 10, "CampusID": 171, "Status": null, "County": "Denton" }, "geometry": { "type": "Point", "coordinates": [ -97.289246753776098, 33.184760860170904 ] } },
{ "type": "Feature", "properties": { "OBJECTID": 124, "NAME": "Justin", "GRADE": "Elementary School", "SYMBOL": 98, "SCHOOL_SYM": 1, "ISD": "Northwest", "Visible": "Yes", "Address": "425 Boss Range Rd, Justin, TX 76247", "ISDID": 8, "CampusID": 143, "Status": null, "County": "Denton" }, "geometry": { "type": "Point", "coordinates": [ -97.308218694339303, 33.080971575557435 ] } },
{ "type": "Feature", "properties": { "OBJECTID": 125, "NAME": "Steele Accelerated", "GRADE": "High School", "SYMBOL": 91, "SCHOOL_SYM": 3, "ISD": "Northwest", "Visible": "No", "Address": "606 N Walnut St, Roanoke, TX 76262", "ISDID": 8, "CampusID": 144, "Status": null, "County": "Denton" }, "geometry": { "type": "Point", "coordinates": [ -97.223906673444461, 33.002275217428483 ] } },
{ "type": "Feature", "properties": { "OBJECTID": 126, "NAME": "Lakeview", "GRADE": "Elementary School", "SYMBOL": 98, "SCHOOL_SYM": 1, "ISD": "Northwest", "Visible": "Yes", "Address": "100 Village Trail, Trophy Club, TX 76262", "ISDID": 8, "CampusID": 145, "Status": null, "County": "Denton" }, "geometry": { "type": "Point", "coordinates": [ -97.210697991222787, 33.003489011171162 ] } },
{ "type": "Feature", "properties": { "OBJECTID": 127, "NAME": "Northwest", "GRADE": "High School", "SYMBOL": 91, "SCHOOL_SYM": 3, "ISD": "Northwest", "Visible": "Yes", "Address": "2301 Texan Dr, Justin, TX 76247", "ISDID": 8, "CampusID": 146, "Status": null, "County": "Denton" }, "geometry": { "type": "Point", "coordinates": [ -97.312923000243302, 33.025193999697429 ] } },
{ "type": "Feature", "properties": { "OBJECTID": 128, "NAME": "Beck", "GRADE": "Elementary School", "SYMBOL": 98, "SCHOOL_SYM": 1, "ISD": "Northwest", "Visible": "Yes", "Address": "401 Parkview Dr, Trophy Club, TX 76262", "ISDID": 8, "CampusID": 147, "Status": null, "County": "Denton" }, "geometry": { "type": "Point", "coordinates": [ -97.207796715331213, 33.009149137870281 ] } },
{ "type": "Feature", "properties": { "OBJECTID": 129, "NAME": "Medlin", "GRADE": "Middle School", "SYMBOL": 92, "SCHOOL_SYM": 2, "ISD": "Northwest", "Visible": "Yes", "Address": "601 Parkview Dr, Roanoke, TX 76262", "ISDID": 8, "CampusID": 148, "Status": null, "County": "Denton" }, "geometry": { "type": "Point", "coordinates": [ -97.206586211926165, 33.014626080094281 ] } },
{ "type": "Feature", "properties": { "OBJECTID": 130, "NAME": "Hatfield", "GRADE": "Elementary School", "SYMBOL": 98, "SCHOOL_SYM": 1, "ISD": "Northwest", "Visible": "Yes", "Address": "2051 Texan Dr, Justin, TX 76247", "ISDID": 8, "CampusID": 149, "Status": null, "County": "Denton" }, "geometry": { "type": "Point", "coordinates": [ -97.317634499879404, 33.030143999496744 ] } },
{ "type": "Feature", "properties": { "OBJECTID": 131, "NAME": "Denton Creek", "GRADE": "High School", "SYMBOL": 91, "SCHOOL_SYM": 3, "ISD": "Northwest", "Visible": "No", "Address": "N/A", "ISDID": 8, "CampusID": 150, "Status": "Temporaly Closed", "County": "Denton" }, "geometry": { "type": "Point", "coordinates": [ -97.194046710659009, 33.040894952889325 ] } },
{ "type": "Feature", "properties": { "OBJECTID": 132, "NAME": "Byron Nelson", "GRADE": "High School", "SYMBOL": 91, "SCHOOL_SYM": 3, "ISD": "Northwest", "Visible": "Yes", "Address": "2775 Bobcat Blvd, Trophy Club, TX 76262", "ISDID": 8, "CampusID": 151, "Status": null, "County": "Denton" }, "geometry": { "type": "Point", "coordinates": [ -97.20322281917656, 33.019114175426779 ] } },
{ "type": "Feature", "properties": { "OBJECTID": 133, "NAME": "Chavez", "GRADE": "Elementary School", "SYMBOL": 98, "SCHOOL_SYM": 1, "ISD": "Little Elm", "Visible": "Yes", "Address": "2600 Hart Rd, Little Elm, TX 75068", "ISDID": 7, "CampusID": 132, "Status": null, "County": "Denton" }, "geometry": { "type": "Point", "coordinates": [ -96.922086899089336, 33.175675917163275 ] } },
{ "type": "Feature", "properties": { "OBJECTID": 134, "NAME": "Brent", "GRADE": "Elementary School", "SYMBOL": 98, "SCHOOL_SYM": 1, "ISD": "Little Elm", "Visible": "Yes", "Address": "500 Witt Rd, Little Elm, TX 75068", "ISDID": 7, "CampusID": 133, "Status": null, "County": "Denton" }, "geometry": { "type": "Point", "coordinates": [ -96.902616960493205, 33.162401692897511 ] } },
{ "type": "Feature", "properties": { "OBJECTID": 135, "NAME": "Little Elm", "GRADE": "High School", "SYMBOL": 91, "SCHOOL_SYM": 3, "ISD": "Little Elm", "Visible": "Yes", "Address": "1900 Walker Ln, Little Elm, TX 75068", "ISDID": 7, "CampusID": 134, "Status": null, "County": "Denton" }, "geometry": { "type": "Point", "coordinates": [ -96.90698025329354, 33.181366180807551 ] } },
{ "type": "Feature", "properties": { "OBJECTID": 136, "NAME": "Lakeview", "GRADE": "Elementary School", "SYMBOL": 98, "SCHOOL_SYM": 1, "ISD": "Little Elm", "Visible": "Yes", "Address": "1800 Waterside Dr, Little Elm, TX 75068", "ISDID": 7, "CampusID": 135, "Status": null, "County": "Denton" }, "geometry": { "type": "Point", "coordinates": [ -96.906906641375727, 33.18877469895908 ] } },
{ "type": "Feature", "properties": { "OBJECTID": 137, "NAME": "Hackberry", "GRADE": "Elementary School", "SYMBOL": 98, "SCHOOL_SYM": 1, "ISD": "Little Elm", "Visible": "Yes", "Address": "7200 Snug Harbor Cir, Frisco, TX 75034", "ISDID": 7, "CampusID": 136, "Status": null, "County": "Denton" }, "geometry": { "type": "Point", "coordinates": [ -96.925014388534905, 33.153016866552676 ] } },
{ "type": "Feature", "properties": { "OBJECTID": 138, "NAME": "Zellars", "GRADE": "Elementary School", "SYMBOL": 98, "SCHOOL_SYM": 1, "ISD": "Little Elm", "Visible": "Yes", "Address": "300 Lobo Ln, Little Elm, TX 75068", "ISDID": 7, "CampusID": 137, "Status": null, "County": "Denton" }, "geometry": { "type": "Point", "coordinates": [ -96.941522780083574, 33.154790696548979 ] } },
{ "type": "Feature", "properties": { "OBJECTID": 139, "NAME": "Oak Point", "GRADE": "Elementary School", "SYMBOL": 98, "SCHOOL_SYM": 1, "ISD": "Little Elm", "Visible": "Yes", "Address": "401 Shahan Prairie Rd, Oak Point, TX 75068", "ISDID": 7, "CampusID": 138, "Status": null, "County": "Denton" }, "geometry": { "type": "Point", "coordinates": [ -96.968732480528658, 33.184427712968251 ] } },
{ "type": "Feature", "properties": { "OBJECTID": 140, "NAME": "Pioneer Heritage", "GRADE": "Middle School", "SYMBOL": 92, "SCHOOL_SYM": 2, "ISD": "Frisco", "Visible": "Yes", "Address": "1649 High Shoals Dr, Frisco, TX 75034", "ISDID": 14, "CampusID": 207, "Status": null, "County": "Denton" }, "geometry": { "type": "Point", "coordinates": [ -96.877403684655704, 33.142487321025193 ] } },
{ "type": "Feature", "properties": { "OBJECTID": 141, "NAME": "Fisher", "GRADE": "Elementary School", "SYMBOL": 98, "SCHOOL_SYM": 1, "ISD": "Frisco", "Visible": "Yes", "Address": "2500 Old Orchard Dr, Frisco, TX 75033", "ISDID": 14, "CampusID": 208, "Status": null, "County": "Denton" }, "geometry": { "type": "Point", "coordinates": [ -96.868787576470282, 33.157566936612582 ] } },
{ "type": "Feature", "properties": { "OBJECTID": 142, "NAME": "Pink", "GRADE": "Elementary School", "SYMBOL": 98, "SCHOOL_SYM": 1, "ISD": "Frisco", "Visible": "Yes", "Address": "3650 Overhill Dr, Frisco, TX 75033", "ISDID": 14, "CampusID": 209, "Status": null, "County": "Denton" }, "geometry": { "type": "Point", "coordinates": [ -96.858166334707221, 33.173389258464148 ] } },
{ "type": "Feature", "properties": { "OBJECTID": 143, "NAME": "Bledsoe", "GRADE": "Elementary School", "SYMBOL": 98, "SCHOOL_SYM": 1, "ISD": "Frisco", "Visible": "Yes", "Address": "1900 Timber Ridge Dr, Frisco, TX 75036", "ISDID": 14, "CampusID": 210, "Status": null, "County": "Denton" }, "geometry": { "type": "Point", "coordinates": [ -96.873557437493119, 33.130170950016108 ] } },
{ "type": "Feature", "properties": { "OBJECTID": 144, "NAME": "Boals", "GRADE": "Elementary School", "SYMBOL": 98, "SCHOOL_SYM": 1, "ISD": "Frisco", "Visible": "Yes", "Address": "2035 Jaguar Dr, Frisco, TX 75033", "ISDID": 14, "CampusID": 211, "Status": null, "County": "Denton" }, "geometry": { "type": "Point", "coordinates": [ -96.873475571870586, 33.187278895480055 ] } },
{ "type": "Feature", "properties": { "OBJECTID": 145, "NAME": "Corbell", "GRADE": "Elementary School", "SYMBOL": 98, "SCHOOL_SYM": 1, "ISD": "Frisco", "Visible": "Yes", "Address": "11095 Monarch Dr, Frisco, TX 75033", "ISDID": 14, "CampusID": 212, "Status": null, "County": "Denton" }, "geometry": { "type": "Point", "coordinates": [ -96.880583422528261, 33.162445870491815 ] } },
{ "type": "Feature", "properties": { "OBJECTID": 146, "NAME": "Wakeland", "GRADE": "High School", "SYMBOL": 91, "SCHOOL_SYM": 3, "ISD": "Frisco", "Visible": "Yes", "Address": "10700 Legacy Dr, Frisco, TX 75034", "ISDID": 14, "CampusID": 213, "Status": null, "County": "Denton" }, "geometry": { "type": "Point", "coordinates": [ -96.845665419236198, 33.167429657972747 ] } },
{ "type": "Feature", "properties": { "OBJECTID": 147, "NAME": "Sparks", "GRADE": "Elementary School", "SYMBOL": 98, "SCHOOL_SYM": 1, "ISD": "Frisco", "Visible": "Yes", "Address": "8200 Otis Dr, Frisco, TX 75036", "ISDID": 14, "CampusID": 214, "Status": null, "County": "Denton" }, "geometry": { "type": "Point", "coordinates": [ -96.882828903291355, 33.147322578850549 ] } },
{ "type": "Feature", "properties": { "OBJECTID": 148, "NAME": "Griffin", "GRADE": "Middle School", "SYMBOL": 92, "SCHOOL_SYM": 2, "ISD": "Frisco", "Visible": "Yes", "Address": "3703 W Eldorado Parkway, Frisco TX 75033", "ISDID": 14, "CampusID": 215, "Status": null, "County": "Denton" }, "geometry": { "type": "Point", "coordinates": [ -96.857256221798423, 33.177050820740298 ] } },
{ "type": "Feature", "properties": { "OBJECTID": 149, "NAME": "Stafford", "GRADE": "Middle School", "SYMBOL": 92, "SCHOOL_SYM": 2, "ISD": "Frisco", "Visible": "Yes", "Address": "2288 Little River Dr, Frisco, TX 75034", "ISDID": 14, "CampusID": 216, "Status": null, "County": "Denton" }, "geometry": { "type": "Point", "coordinates": [ -96.869164732588075, 33.197625578905082 ] } },
{ "type": "Feature", "properties": { "OBJECTID": 150, "NAME": "Robertson", "GRADE": "Elementary School", "SYMBOL": 98, "SCHOOL_SYM": 1, "ISD": "Frisco", "Visible": "Yes", "Address": "2501 Woodlake Pkwy, Little Elm, TX 75068", "ISDID": 14, "CampusID": 217, "Status": null, "County": "Denton" }, "geometry": { "type": "Point", "coordinates": [ -96.893902900775458, 33.192752822334512 ] } },
{ "type": "Feature", "properties": { "OBJECTID": 151, "NAME": "Lone Star", "GRADE": "High School", "SYMBOL": 91, "SCHOOL_SYM": 3, "ISD": "Frisco", "Visible": "Yes", "Address": "2606 Panther Creek Pkwy, Frisco, TX 75033", "ISDID": 14, "CampusID": 218, "Status": null, "County": "Denton" }, "geometry": { "type": "Point", "coordinates": [ -96.866460648627196, 33.191023174836097 ] } },
{ "type": "Feature", "properties": { "OBJECTID": 152, "NAME": "Purefoy", "GRADE": "Elementary School", "SYMBOL": 98, "SCHOOL_SYM": 1, "ISD": "Frisco", "Visible": "Yes", "Address": "11880 Teel Pkwy, Frisco, TX 75033", "ISDID": 14, "CampusID": 219, "Status": null, "County": "Denton" }, "geometry": { "type": "Point", "coordinates": [ -96.865327073844739, 33.176954731102448 ] } },
{ "type": "Feature", "properties": { "OBJECTID": 153, "NAME": "DeLay", "GRADE": "Middle School", "SYMBOL": 92, "SCHOOL_SYM": 2, "ISD": "Lewisville", "Visible": "Yes", "Address": "2103 Savage Ln, Lewisville, TX 75057", "ISDID": 6, "CampusID": 122, "Status": null, "County": "Denton" }, "geometry": { "type": "Point", "coordinates": [ -97.019288645397893, 33.074591080102735 ] } },
{ "type": "Feature", "properties": { "OBJECTID": 154, "NAME": "Krum", "GRADE": "High School", "SYMBOL": 91, "SCHOOL_SYM": 3, "ISD": "Krum", "Visible": "Yes", "Address": "700 Bobcat Blvd, Krum, TX 76249", "ISDID": 4, "CampusID": 56, "Status": null, "County": "Denton" }, "geometry": { "type": "Point", "coordinates": [ -97.227165855665604, 33.263915480930343 ] } },
{ "type": "Feature", "properties": { "OBJECTID": 155, "NAME": "Clara Love", "GRADE": "Elementary School", "SYMBOL": 98, "SCHOOL_SYM": 1, "ISD": "Northwest", "Visible": "Yes", "Address": "16301 Elementary Dr, Justin, TX 76247", "ISDID": 8, "CampusID": 152, "Status": null, "County": "Denton" }, "geometry": { "type": "Point", "coordinates": [ -97.323927101924653, 33.038979148155711 ] } },
{ "type": "Feature", "properties": { "OBJECTID": 156, "NAME": "Lakeside", "GRADE": "Middle School", "SYMBOL": 92, "SCHOOL_SYM": 5, "ISD": "Little Elm", "Visible": "No", "Address": "400 Lobo Ln, Little Elm, TX 75068", "ISDID": 7, "CampusID": 139, "Status": "Inactive", "County": "Denton" }, "geometry": { "type": "Point", "coordinates": [ -96.941834461219315, 33.151524771703379 ] } },
{ "type": "Feature", "properties": { "OBJECTID": 157, "NAME": "King", "GRADE": "Early Learning", "SYMBOL": 98, "SCHOOL_SYM": 1, "ISD": "Little Elm", "Visible": "No", "Address": "101 Main St, Little Elm, TX 75068", "ISDID": 7, "CampusID": 140, "Status": "Inactive", "County": "Denton" }, "geometry": { "type": "Point", "coordinates": [ -96.936673022532801, 33.163093853829373 ] } },
{ "type": "Feature", "properties": { "OBJECTID": 158, "NAME": "Powell ", "GRADE": "6th Grade Campus", "SYMBOL": 92, "SCHOOL_SYM": 2, "ISD": "Little Elm", "Visible": "Yes", "Address": "520 Lobo Ln, Little Elm, TX 75068", "ISDID": 7, "CampusID": 141, "Status": "", "County": "Denton" }, "geometry": { "type": "Point", "coordinates": [ -96.941552575258456, 33.150090452090971 ] } },
{ "type": "Feature", "properties": { "OBJECTID": 159, "NAME": "Lewisville Killough", "GRADE": "High School", "SYMBOL": 91, "SCHOOL_SYM": 3, "ISD": "Lewisville", "Visible": "Yes", "Address": "1301 N Summit Ave, Lewisville, TX 75067", "ISDID": 6, "CampusID": 123, "Status": null, "County": "Denton" }, "geometry": { "type": "Point", "coordinates": [ -97.019025924269116, 33.061612919780465 ] } },
{ "type": "Feature", "properties": { "OBJECTID": 160, "NAME": "Lewisville Harmon", "GRADE": "High School", "SYMBOL": 91, "SCHOOL_SYM": 3, "ISD": "Lewisville", "Visible": "Yes", "Address": "1250 W Round Grove Rd, Lewisville, TX 75067", "ISDID": 6, "CampusID": 124, "Status": null, "County": "Denton" }, "geometry": { "type": "Point", "coordinates": [ -97.026007059241678, 33.007853111484899 ] } },
{ "type": "Feature", "properties": { "OBJECTID": 161, "NAME": "Lake Dallas", "GRADE": "Elementary School", "SYMBOL": 98, "SCHOOL_SYM": 1, "ISD": "Lake Dallas", "Visible": "Yes", "Address": "401 Main St, Lake Dallas, TX 75065", "ISDID": 5, "CampusID": 61, "Status": null, "County": "Denton" }, "geometry": { "type": "Point", "coordinates": [ -97.024415845234017, 33.119630287115911 ] } },
{ "type": "Feature", "properties": { "OBJECTID": 162, "NAME": "Cross Oaks", "GRADE": "Elementary School", "SYMBOL": 98, "SCHOOL_SYM": 1, "ISD": "Denton", "Visible": "Yes", "Address": "600 Liberty Blvd, Cross Roads, TX 76227", "ISDID": 3, "CampusID": 36, "Status": null, "County": "Denton" }, "geometry": { "type": "Point", "coordinates": [ -96.982502323157092, 33.207362542616295 ] } },
{ "type": "Feature", "properties": { "OBJECTID": 163, "NAME": "Olive Stephens", "GRADE": "Elementary School", "SYMBOL": 98, "SCHOOL_SYM": 1, "ISD": "Denton", "Visible": "Yes", "Address": "133 N Garza Rd, Shady Shores, TX 76208", "ISDID": 3, "CampusID": 37, "Status": null, "County": "Denton" }, "geometry": { "type": "Point", "coordinates": [ -97.041397907178023, 33.164057153358478 ] } },
{ "type": "Feature", "properties": { "OBJECTID": 164, "NAME": "N Rayzor", "GRADE": "Elementary School", "SYMBOL": 98, "SCHOOL_SYM": 1, "ISD": "Denton", "Visible": "Yes", "Address": "1400 Malone St, Denton, TX 76201", "ISDID": 3, "CampusID": 38, "Status": null, "County": "Denton" }, "geometry": { "type": "Point", "coordinates": [ -97.148621058767375, 33.227853090680902 ] } },
{ "type": "Feature", "properties": { "OBJECTID": 165, "NAME": "E P Rayzor", "GRADE": "Elementary School", "SYMBOL": 98, "SCHOOL_SYM": 1, "ISD": "Denton", "Visible": "Yes", "Address": "377 Rayzor Rd, Lantana, TX 76226", "ISDID": 3, "CampusID": 39, "Status": null, "County": "Denton" }, "geometry": { "type": "Point", "coordinates": [ -97.129731784614606, 33.086585040677981 ] } },
{ "type": "Feature", "properties": { "OBJECTID": 166, "NAME": "Krum Early Education Center", "GRADE": "Elementary School", "SYMBOL": 98, "SCHOOL_SYM": 1, "ISD": "Krum", "Visible": "Yes", "Address": "1513 Sequoia Dr, Krum, TX 76249", "ISDID": 4, "CampusID": 57, "Status": null, "County": "Denton" }, "geometry": { "type": "Point", "coordinates": [ -97.21505131325182, 33.259085235973572 ] } },
{ "type": "Feature", "properties": { "OBJECTID": 167, "NAME": "Roanoke", "GRADE": "Elementary School", "SYMBOL": 98, "SCHOOL_SYM": 1, "ISD": "Northwest", "Visible": "Yes", "Address": "1401 Lancelot Drive, Roanoke, TX 76262", "ISDID": 8, "CampusID": 153, "Status": null, "County": "Denton" }, "geometry": { "type": "Point", "coordinates": [ -97.219883805220931, 33.019808281620755 ] } },
{ "type": "Feature", "properties": { "OBJECTID": 168, "NAME": "Cobb", "GRADE": "Middle School", "SYMBOL": 92, "SCHOOL_SYM": 2, "ISD": "Frisco", "Visible": "Yes", "Address": "9400 Teel Pkwy, Frisco, TX 75033", "ISDID": 14, "CampusID": 220, "Status": null, "County": "Denton" }, "geometry": { "type": "Point", "coordinates": [ -96.862398542689192, 33.156307646717188 ] } },
{ "type": "Feature", "properties": { "OBJECTID": 169, "NAME": "Carroll", "GRADE": "Elementary School", "SYMBOL": 98, "SCHOOL_SYM": 1, "ISD": "Frisco", "Visible": "Yes", "Address": "4380 Throne Hall Dr, Frisco, TX 75033", "ISDID": 14, "CampusID": 221, "Status": null, "County": "Denton" }, "geometry": { "type": "Point", "coordinates": [ -96.849877038509447, 33.15882647829185 ] } },
{ "type": "Feature", "properties": { "OBJECTID": 170, "NAME": "Allen", "GRADE": "Elementary School", "SYMBOL": 98, "SCHOOL_SYM": 1, "ISD": "Frisco", "Visible": "Yes", "Address": "5800 Legacy Dr, Frisco, TX 75034", "ISDID": 14, "CampusID": 222, "Status": null, "County": "Denton" }, "geometry": { "type": "Point", "coordinates": [ -96.847332413892872, 33.12660713223169 ] } },
{ "type": "Feature", "properties": { "OBJECTID": 171, "NAME": "Shady Shores", "GRADE": "Elementary School", "SYMBOL": 98, "SCHOOL_SYM": 1, "ISD": "Lake Dallas", "Visible": "Yes", "Address": "300 Dobbs Rd, Denton, TX 76208", "ISDID": 5, "CampusID": 62, "Status": null, "County": "Denton" }, "geometry": { "type": "Point", "coordinates": [ -97.036526237623576, 33.1453819702283 ] } },
{ "type": "Feature", "properties": { "OBJECTID": 172, "NAME": "Rockbrook", "GRADE": "Elementary School", "SYMBOL": 98, "SCHOOL_SYM": 1, "ISD": "Lewisville", "Visible": "Yes", "Address": "2751 Rockbrook Dr, Lewisville, TX 75067", "ISDID": 6, "CampusID": 125, "Status": null, "County": "Denton" }, "geometry": { "type": "Point", "coordinates": [ -96.979398517680778, 32.995631327587347 ] } },
{ "type": "Feature", "properties": { "OBJECTID": 173, "NAME": "Adkins", "GRADE": "Elementary School", "SYMBOL": 98, "SCHOOL_SYM": 1, "ISD": "Denton", "Visible": "Yes", "Address": "1701 Monahan Dr, Lantana, TX 76226", "ISDID": 3, "CampusID": 40, "Status": null, "County": "Denton" }, "geometry": { "type": "Point", "coordinates": [ -97.11150694734539, 33.076215947000136 ] } },
{ "type": "Feature", "properties": { "OBJECTID": 174, "NAME": "V.R. Eaton", "GRADE": "High School", "SYMBOL": 91, "SCHOOL_SYM": 3, "ISD": "Northwest", "Visible": "Yes", "Address": "1350 Eagle Blvd, Haslet, TX 76052", "ISDID": 8, "CampusID": 154, "Status": null, "County": "Tarrant" }, "geometry": { "type": "Point", "coordinates": [ -97.388330796077369, 32.9412270567123 ] } },
{ "type": "Feature", "properties": { "OBJECTID": 175, "NAME": "Prestwick STEM Academy", "GRADE": "K-8 ", "SYMBOL": 92, "SCHOOL_SYM": 4, "ISD": "Little Elm", "Visible": "Yes", "Address": "3101 Stonefield, The Colony, TX 75056", "ISDID": 7, "CampusID": 142, "Status": null, "County": "Denton" }, "geometry": { "type": "Point", "coordinates": [ -96.919116778639989, 33.115834084989523 ] } },
{ "type": "Feature", "properties": { "OBJECTID": 176, "NAME": "Bettye Myers", "GRADE": "Middle School", "SYMBOL": 92, "SCHOOL_SYM": 2, "ISD": "Denton", "Visible": "Yes", "Address": "131 N Garza Rd, Shady Shores, TX 76208", "ISDID": 3, "CampusID": 41, "Status": null, "County": "Denton" }, "geometry": { "type": "Point", "coordinates": [ -97.041628376675291, 33.161959202066576 ] } },
{ "type": "Feature", "properties": { "OBJECTID": 177, "NAME": "Rick Reedy", "GRADE": "High School", "SYMBOL": 91, "SCHOOL_SYM": 3, "ISD": "Frisco", "Visible": "Yes", "Address": "3003 Stonebrook Pkwy, Frisco, TX 75036", "ISDID": 14, "CampusID": 223, "Status": null, "County": "Denton" }, "geometry": { "type": "Point", "coordinates": [ -96.863592351278697, 33.131105999611407 ] } },
{ "type": "Feature", "properties": { "OBJECTID": 178, "NAME": "Pearson", "GRADE": "Middle School", "SYMBOL": 92, "SCHOOL_SYM": 2, "ISD": "Frisco", "Visible": "Yes", "Address": "2323 Stonebrook Pkwy, Frisco, TX 75036", "ISDID": 14, "CampusID": 224, "Status": null, "County": "Denton" }, "geometry": { "type": "Point", "coordinates": [ -96.869863619234039, 33.131819126628372 ] } },
{ "type": "Feature", "properties": { "OBJECTID": 179, "NAME": "Trent", "GRADE": "Middle School", "SYMBOL": 92, "SCHOOL_SYM": 2, "ISD": "Frisco", "Visible": "Yes", "Address": "13131 Coleto Creek Dr, Frisco, TX 75033", "ISDID": 14, "CampusID": 225, "Status": null, "County": "Denton" }, "geometry": { "type": "Point", "coordinates": [ -96.843478070382119, 33.188744142900624 ] } },
{ "type": "Feature", "properties": { "OBJECTID": 180, "NAME": "Hosp", "GRADE": "Elementary School", "SYMBOL": 98, "SCHOOL_SYM": 1, "ISD": "Frisco", "Visible": "Yes", "Address": "5050 Lone Star Ranch Pkwy, Frisco, TX 75036", "ISDID": 14, "CampusID": 226, "Status": null, "County": "Denton" }, "geometry": { "type": "Point", "coordinates": [ -96.883130824231202, 33.120738385941372 ] } },
{ "type": "Feature", "properties": { "OBJECTID": 181, "NAME": "Newman", "GRADE": "Elementary School", "SYMBOL": 98, "SCHOOL_SYM": 1, "ISD": "Frisco", "Visible": "Yes", "Address": "12333 Briar Ridge Rd, Frisco, TX 75033", "ISDID": 14, "CampusID": 227, "Status": null, "County": "Denton" }, "geometry": { "type": "Point", "coordinates": [ -96.857806359653651, 33.181034365131829 ] } },
{ "type": "Feature", "properties": { "OBJECTID": 182, "NAME": "Nichols", "GRADE": "Elementary School", "SYMBOL": 98, "SCHOOL_SYM": 1, "ISD": "Frisco", "Visible": "Yes", "Address": "7411 Nichols Trail, Frisco, TX 75034", "ISDID": 14, "CampusID": 228, "Status": null, "County": "Denton" }, "geometry": { "type": "Point", "coordinates": [ -96.875181432114061, 33.140553922367047 ] } },
{ "type": "Feature", "properties": { "OBJECTID": 183, "NAME": "Phillips", "GRADE": "Elementary School", "SYMBOL": 98, "SCHOOL_SYM": 1, "ISD": "Frisco", "Visible": "Yes", "Address": "2285 Little River Dr, Frisco, TX 75033", "ISDID": 14, "CampusID": 229, "Status": null, "County": "Denton" }, "geometry": { "type": "Point", "coordinates": [ -96.870191465735203, 33.196576843586712 ] } },
{ "type": "Feature", "properties": { "OBJECTID": 184, "NAME": "Lillie Jackson Early Childhood Ctr", "GRADE": "Elementary School", "SYMBOL": 98, "SCHOOL_SYM": 1, "ISD": "Lewisville", "Visible": "Yes", "Address": "1651 S Valley Pkwy, Lewisville, TX 75067", "ISDID": 6, "CampusID": 126, "Status": null, "County": "Denton" }, "geometry": { "type": "Point", "coordinates": [ -97.017892985933003, 33.026865117506325 ] } },
{ "type": "Feature", "properties": { "OBJECTID": 185, "NAME": "Cox", "GRADE": "Elementary School", "SYMBOL": 98, "SCHOOL_SYM": 1, "ISD": "Northwest", "Visible": "Yes", "Address": "1100 Litsey Rd, Roanoke, TX 76262", "ISDID": 8, "CampusID": 155, "Status": null, "County": "Denton" }, "geometry": { "type": "Point", "coordinates": [ -97.25048976300161, 33.008728708992564 ] } },
{ "type": "Feature", "properties": { "OBJECTID": 186, "NAME": "Braswell", "GRADE": "High School", "SYMBOL": 91, "SCHOOL_SYM": 3, "ISD": "Denton", "Visible": "Yes", "Address": "26750 E University Dr, Aubrey, TX 76227", "ISDID": 3, "CampusID": 42, "Status": null, "County": "Denton" }, "geometry": { "type": "Point", "coordinates": [ -96.928914565763222, 33.219006029104349 ] } },
{ "type": "Feature", "properties": { "OBJECTID": 187, "NAME": "Catherine Bell", "GRADE": "Elementary School", "SYMBOL": 98, "SCHOOL_SYM": 1, "ISD": "Denton", "Visible": "Yes", "Address": "601 Villa Paloma Blvd, Little Elm, TX 75068", "ISDID": 3, "CampusID": 43, "Status": null, "County": "Denton" }, "geometry": { "type": "Point", "coordinates": [ -96.929271496455868, 33.214150301424588 ] } },
{ "type": "Feature", "properties": { "OBJECTID": 188, "NAME": "Providence", "GRADE": "Elementary School", "SYMBOL": 98, "SCHOOL_SYM": 1, "ISD": "Denton", "Visible": "Yes", "Address": "1000 FM2931, Providence Village, TX 76227", "ISDID": 3, "CampusID": 44, "Status": null, "County": "Denton" }, "geometry": { "type": "Point", "coordinates": [ -96.962973041116157, 33.226813540667592 ] } },
{ "type": "Feature", "properties": { "OBJECTID": 189, "NAME": "Rivera", "GRADE": "Elementary School", "SYMBOL": 98, "SCHOOL_SYM": 1, "ISD": "Denton", "Visible": "Yes", "Address": "701 Newton St, Denton, TX 76205", "ISDID": 3, "CampusID": 45, "Status": null, "County": "Denton" }, "geometry": { "type": "Point", "coordinates": [ -97.115735004016358, 33.208056903697141 ] } },
{ "type": "Feature", "properties": { "OBJECTID": 190, "NAME": "Argyle", "GRADE": "Middle School", "SYMBOL": 92, "SCHOOL_SYM": 2, "ISD": "Argyle", "Visible": "Yes", "Address": "191 US-377, Argyle, TX 76226", "ISDID": 1, "CampusID": 2, "Status": null, "County": "Denton" }, "geometry": { "type": "Point", "coordinates": [ -97.185506708181904, 33.10708762389806 ] } },
{ "type": "Feature", "properties": { "OBJECTID": 191, "NAME": "Early Bird Learning Center", "GRADE": "Elementary School", "SYMBOL": 98, "SCHOOL_SYM": 1, "ISD": "Aubrey", "Visible": "Yes", "Address": "415 Tisdell Ln, Aubrey, TX 76227", "ISDID": 2, "CampusID": 306, "Status": null, "County": "Denton" }, "geometry": { "type": "Point", "coordinates": [ -96.980994511319636, 33.306096510964714 ] } },
{ "type": "Feature", "properties": { "OBJECTID": 192, "NAME": "Bea Salazar Learning Center", "GRADE": "High School", "SYMBOL": 91, "SCHOOL_SYM": 3, "ISD": "Carrollton-Farmers Branch", "Visible": "No", "Address": "2416 Keller Springs Rd, Carrollton, TX 75006", "ISDID": 12, "CampusID": 192, "Status": null, "County": "Dallas" }, "geometry": { "type": "Point", "coordinates": [ -96.875244752438817, 32.970722512343755 ] } },
{ "type": "Feature", "properties": { "OBJECTID": 193, "NAME": "Marie Huie Special Education Center", "GRADE": "Elementary School", "SYMBOL": 98, "SCHOOL_SYM": 1, "ISD": "Carrollton-Farmers Branch", "Visible": "No", "Address": "1820 Pearl St, Carrollton, TX 75006", "ISDID": 12, "CampusID": 193, "Status": null, "County": "Denton" }, "geometry": { "type": "Point", "coordinates": [ -96.878055847577002, 32.999013105295745 ] } },
{ "type": "Feature", "properties": { "OBJECTID": 194, "NAME": "Blanton", "GRADE": "Elementary School", "SYMBOL": 98, "SCHOOL_SYM": 1, "ISD": "Carrollton-Farmers Branch", "Visible": "Yes", "Address": "2525 Scott Mill Rd, Carrollton, TX 75006", "ISDID": 12, "CampusID": 194, "Status": null, "County": "Dallas" }, "geometry": { "type": "Point", "coordinates": [ -96.885621000156874, 32.98368599939824 ] } },
{ "type": "Feature", "properties": { "OBJECTID": 195, "NAME": "Country Place", "GRADE": "Elementary School", "SYMBOL": 98, "SCHOOL_SYM": 1, "ISD": "Carrollton-Farmers Branch", "Visible": "Yes", "Address": "2115 Raintree Dr, Carrollton, TX 75006", "ISDID": 12, "CampusID": 195, "Status": null, "County": "Dallas" }, "geometry": { "type": "Point", "coordinates": [ -96.86314992355247, 32.967045945018384 ] } },
{ "type": "Feature", "properties": { "OBJECTID": 196, "NAME": "Good", "GRADE": "Elementary School", "SYMBOL": 98, "SCHOOL_SYM": 1, "ISD": "Carrollton-Farmers Branch", "Visible": "Yes", "Address": "1012 Study Ln, Carrollton, TX 75006", "ISDID": 12, "CampusID": 196, "Status": null, "County": "Dallas" }, "geometry": { "type": "Point", "coordinates": [ -96.908851349541351, 32.970441127996416 ] } },
{ "type": "Feature", "properties": { "OBJECTID": 197, "NAME": "Riverchase", "GRADE": "Elementary School", "SYMBOL": 98, "SCHOOL_SYM": 1, "ISD": "Carrollton-Farmers Branch", "Visible": "Yes", "Address": "272 S MacArthur Blvd, Coppell, TX 75019", "ISDID": 12, "CampusID": 197, "Status": null, "County": "Dallas" }, "geometry": { "type": "Point", "coordinates": [ -96.957461380846411, 32.963831694240838 ] } },
{ "type": "Feature", "properties": { "OBJECTID": 198, "NAME": "Newman Smith", "GRADE": "High School", "SYMBOL": 91, "SCHOOL_SYM": 3, "ISD": "Carrollton-Farmers Branch", "Visible": "Yes", "Address": "2335 N Josey Ln, Carrollton, TX 75006", "ISDID": 12, "CampusID": 198, "Status": null, "County": "Dallas" }, "geometry": { "type": "Point", "coordinates": [ -96.892321499807991, 32.979185999550225 ] } },
{ "type": "Feature", "properties": { "OBJECTID": 199, "NAME": "Ted Polk", "GRADE": "Middle School", "SYMBOL": 92, "SCHOOL_SYM": 2, "ISD": "Carrollton-Farmers Branch", "Visible": "Yes", "Address": "2001 Kelly Blvd, Carrollton, TX 75006", "ISDID": 12, "CampusID": 199, "Status": null, "County": "Dallas" }, "geometry": { "type": "Point", "coordinates": [ -96.879379500180107, 32.964983999227357 ] } },
{ "type": "Feature", "properties": { "OBJECTID": 200, "NAME": "Rodriguez", "GRADE": "Middle School", "SYMBOL": 92, "SCHOOL_SYM": 2, "ISD": "Denton", "Visible": "Yes", "Address": "8650 Martop Rd, Aubrey, TX 76227", "ISDID": 3, "CampusID": 46, "Status": null, "County": "Denton" }, "geometry": { "type": "Point", "coordinates": [ -96.984693760361267, 33.195385266993718 ] } },
{ "type": "Feature", "properties": { "OBJECTID": 201, "NAME": "LaGrone Academy", "GRADE": "High School", "SYMBOL": 91, "SCHOOL_SYM": 3, "ISD": "", "Visible": "No", "Address": "1504 Long Rd, Denton, TX 76207", "ISDID": 0, "CampusID": 294, "Status": null, "County": "Denton" }, "geometry": { "type": "Point", "coordinates": [ -97.114697082573869, 33.263436495619416 ] } },
{ "type": "Feature", "properties": { "OBJECTID": 202, "NAME": "Davis School DAEP", "GRADE": "K-12", "SYMBOL": null, "SCHOOL_SYM": 4, "ISD": "Denton", "Visible": "No", "Address": "1125 Davis St, Denton, TX 76209", "ISDID": 3, "CampusID": 48, "Status": null, "County": "Denton" }, "geometry": { "type": "Point", "coordinates": [ -97.118468011631833, 33.218250583001193 ] } },
{ "type": "Feature", "properties": { "OBJECTID": 203, "NAME": "Gonzalez School for Young Children", "GRADE": "Elementary School", "SYMBOL": 98, "SCHOOL_SYM": 1, "ISD": "Denton", "Visible": "Yes", "Address": "1212 Long Rd, Denton, TX 76208", "ISDID": 3, "CampusID": 49, "Status": null, "County": "Denton" }, "geometry": { "type": "Point", "coordinates": [ -97.117591500197364, 33.262082999765866 ] } },
{ "type": "Feature", "properties": { "OBJECTID": 204, "NAME": "Windle School for Young Children", "GRADE": "Elementary School", "SYMBOL": 98, "SCHOOL_SYM": 1, "ISD": "Denton", "Visible": "Yes", "Address": "901 Audra Ln, Denton, TX 76209", "ISDID": 3, "CampusID": 50, "Status": null, "County": "Denton" }, "geometry": { "type": "Point", "coordinates": [ -97.108714577791616, 33.222106924650532 ] } },
{ "type": "Feature", "properties": { "OBJECTID": 205, "NAME": "Professional Development Center", "GRADE": "K-12", "SYMBOL": null, "SCHOOL_SYM": 4, "ISD": "Denton", "Visible": "No", "Address": "1212 Bolivar St, Denton, TX 76201", "ISDID": 3, "CampusID": 51, "Status": null, "County": "Denton" }, "geometry": { "type": "Point", "coordinates": [ -97.13453466715292, 33.225369022341546 ] } },
{ "type": "Feature", "properties": { "OBJECTID": 206, "NAME": "Bright", "GRADE": "Elementary School", "SYMBOL": 98, "SCHOOL_SYM": 1, "ISD": "Frisco", "Visible": "Yes", "Address": "7600 Woodstream Dr, Frisco, TX 75034", "ISDID": 14, "CampusID": 230, "Status": null, "County": "Collin" }, "geometry": { "type": "Point", "coordinates": [ -96.813402721969979, 33.141522207015498 ] } },
{ "type": "Feature", "properties": { "OBJECTID": 207, "NAME": "Miller", "GRADE": "Elementary School", "SYMBOL": 98, "SCHOOL_SYM": 1, "ISD": "Frisco", "Visible": "Yes", "Address": "300 Cypress Hill Dr, Little Elm, TX 75068", "ISDID": 14, "CampusID": 231, "Status": null, "County": "Denton" }, "geometry": { "type": "Point", "coordinates": [ -96.895387527710838, 33.210196094310064 ] } },
{ "type": "Feature", "properties": { "OBJECTID": 208, "NAME": "Rogers", "GRADE": "Elementary School", "SYMBOL": 98, "SCHOOL_SYM": 1, "ISD": "Frisco", "Visible": "Yes", "Address": "10500 Rogers Rd, Frisco, TX 75033", "ISDID": 14, "CampusID": 232, "Status": null, "County": "Collin" }, "geometry": { "type": "Point", "coordinates": [ -96.810952499384044, 33.165890999449466 ] } },
{ "type": "Feature", "properties": { "OBJECTID": 209, "NAME": "Spears", "GRADE": "Elementary School", "SYMBOL": 98, "SCHOOL_SYM": 1, "ISD": "Frisco", "Visible": "Yes", "Address": "8500 Wade Blvd, Frisco, TX 75034", "ISDID": 14, "CampusID": 233, "Status": null, "County": "Collin" }, "geometry": { "type": "Point", "coordinates": [ -96.81018300002691, 33.130385999736895 ] } },
{ "type": "Feature", "properties": { "OBJECTID": 210, "NAME": "Vaughn", "GRADE": "Elementary School", "SYMBOL": 98, "SCHOOL_SYM": 1, "ISD": "Frisco", "Visible": "Yes", "Address": "3535 Guinn Gate Dr, Frisco, TX 75034", "ISDID": 14, "CampusID": 234, "Status": null, "County": "Denton" }, "geometry": { "type": "Point", "coordinates": [ -96.859059257463926, 33.137132005888937 ] } },
{ "type": "Feature", "properties": { "OBJECTID": 211, "NAME": "Hunt", "GRADE": "Middle School", "SYMBOL": 92, "SCHOOL_SYM": 2, "ISD": "Frisco", "Visible": "Yes", "Address": "4900 Legendary Dr, Frisco, TX 75034", "ISDID": 14, "CampusID": 235, "Status": null, "County": "Collin" }, "geometry": { "type": "Point", "coordinates": [ -96.807888000187248, 33.119342999542596 ] } },
{ "type": "Feature", "properties": { "OBJECTID": 212, "NAME": "Staley", "GRADE": "Middle School", "SYMBOL": 92, "SCHOOL_SYM": 2, "ISD": "Frisco", "Visible": "Yes", "Address": "6927 Stadium Ln, Frisco, TX 75033", "ISDID": 14, "CampusID": 236, "Status": null, "County": "Collin" }, "geometry": { "type": "Point", "coordinates": [ -96.823673999861597, 33.157299559121839 ] } },
{ "type": "Feature", "properties": { "OBJECTID": 213, "NAME": "Frisco", "GRADE": "High School", "SYMBOL": 91, "SCHOOL_SYM": 3, "ISD": "Frisco", "Visible": "Yes", "Address": "6401 Parkwood Blvd, Frisco, TX 75034", "ISDID": 14, "CampusID": 237, "Status": null, "County": "Collin" }, "geometry": { "type": "Point", "coordinates": [ -96.822211499732575, 33.132149999298612 ] } },
{ "type": "Feature", "properties": { "OBJECTID": 214, "NAME": "Career Center East", "GRADE": "High School", "SYMBOL": 91, "SCHOOL_SYM": 3, "ISD": "Lewisville", "Visible": "Yes", "Address": "2553 FM 544, Lewisville, TX 75056", "ISDID": 6, "CampusID": 127, "Status": null, "County": "Denton" }, "geometry": { "type": "Point", "coordinates": [ -96.908860792315906, 33.048591483093496 ] } },
{ "type": "Feature", "properties": { "OBJECTID": 216, "NAME": "Lewisville Learning Center", "GRADE": "K-12", "SYMBOL": null, "SCHOOL_SYM": 4, "ISD": "Lewisville", "Visible": "No", "Address": "1601 S Edmonds Ln, Lewisville, Tx 75067", "ISDID": 6, "CampusID": 129, "Status": null, "County": "Denton" }, "geometry": { "type": "Point", "coordinates": [ -97.009173033821327, 33.02503998983105 ] } },
{ "type": "Feature", "properties": { "OBJECTID": 217, "NAME": "Purnell Support Center", "GRADE": "K-12", "SYMBOL": null, "SCHOOL_SYM": 4, "ISD": "Lewisville", "Visible": "No", "Address": "136 W Purnell St, Lewisville, TX 75057", "ISDID": 6, "CampusID": 130, "Status": "Inactive", "County": "Denton" }, "geometry": { "type": "Point", "coordinates": [ -96.995256944210965, 33.041535582346896 ] } },
{ "type": "Feature", "properties": { "OBJECTID": 218, "NAME": "Thompson", "GRADE": "Elementary School", "SYMBOL": 98, "SCHOOL_SYM": 1, "ISD": "Northwest", "Visible": "Yes", "Address": "440 Wishbone Ln, Haslet, TX 76052", "ISDID": 8, "CampusID": 156, "Status": null, "County": "Tarrant" }, "geometry": { "type": "Point", "coordinates": [ -97.366269774630666, 32.990502066392452 ] } },
{ "type": "Feature", "properties": { "OBJECTID": 219, "NAME": "Hughes", "GRADE": "Elementary School", "SYMBOL": 98, "SCHOOL_SYM": 1, "ISD": "Northwest", "Visible": "Yes", "Address": "13824 Lost Spurs Rd, Roanoke, TX 76262", "ISDID": 8, "CampusID": 157, "Status": null, "County": "Tarrant" }, "geometry": { "type": "Point", "coordinates": [ -97.284954187810968, 32.981950681012748 ] } },
{ "type": "Feature", "properties": { "OBJECTID": 220, "NAME": "Sendera Ranch", "GRADE": "Elementary School", "SYMBOL": 98, "SCHOOL_SYM": 1, "ISD": "Northwest", "Visible": "Yes", "Address": "1216 Diamondback Ln, Haslet, TX 76052", "ISDID": 8, "CampusID": 158, "Status": null, "County": "Tarrant" }, "geometry": { "type": "Point", "coordinates": [ -97.385979533975686, 32.982559507603071 ] } },
{ "type": "Feature", "properties": { "OBJECTID": 221, "NAME": "Wilson", "GRADE": "Middle School", "SYMBOL": 92, "SCHOOL_SYM": 2, "ISD": "Northwest", "Visible": "Yes", "Address": "14250 Sendera Ranch Blvd, Haslet, TX 76052", "ISDID": 8, "CampusID": 159, "Status": null, "County": "Tarrant" }, "geometry": { "type": "Point", "coordinates": [ -97.388398951135002, 32.986822045825107 ] } },
{ "type": "Feature", "properties": { "OBJECTID": 222, "NAME": "Tidwell", "GRADE": "Middle School", "SYMBOL": 92, "SCHOOL_SYM": 2, "ISD": "Northwest", "Visible": "Yes", "Address": "3937 Haslet-Roanoke Rd, Roanoke, TX 76262", "ISDID": 8, "CampusID": 160, "Status": null, "County": "Tarrant" }, "geometry": { "type": "Point", "coordinates": [ -97.276373509945643, 32.979386661032272 ] } },
{ "type": "Feature", "properties": { "OBJECTID": 223, "NAME": "Special Program Center", "GRADE": "K-12", "SYMBOL": null, "SCHOOL_SYM": 4, "ISD": "Northwest", "Visible": "No", "Address": "1800 TX-114, Justin, TX 76247", "ISDID": 8, "CampusID": 161, "Status": null, "County": "Denton" }, "geometry": { "type": "Point", "coordinates": [ -97.322830095696503, 33.033289460078919 ] } },
{ "type": "Feature", "properties": { "OBJECTID": 224, "NAME": "Windsong", "GRADE": "Elementary School", "SYMBOL": 98, "SCHOOL_SYM": 1, "ISD": "Prosper", "Visible": "Yes", "Address": "800 Copper Canyon Drive, Prosper, TX 75078", "ISDID": 15, "CampusID": 243, "Status": null, "County": "Denton" }, "geometry": { "type": "Point", "coordinates": [ -96.867171718302387, 33.227501000072422 ] } },
{ "type": "Feature", "properties": { "OBJECTID": 225, "NAME": "Linda Tutt", "GRADE": "High School", "SYMBOL": 91, "SCHOOL_SYM": 3, "ISD": "Sanger", "Visible": "Yes", "Address": "404 Hughes St, Sanger, TX 76266", "ISDID": 11, "CampusID": 178, "Status": null, "County": "Denton" }, "geometry": { "type": "Point", "coordinates": [ -97.17920064403765, 33.360682962299343 ] } },
{ "type": "Feature", "properties": { "OBJECTID": 226, "NAME": "Slidell", "GRADE": "Junior/High School", "SYMBOL": 91, "SCHOOL_SYM": 3, "ISD": "Slidell", "Visible": "Yes", "Address": "1 Greyhound Ln, Slidell, TX 76267", "ISDID": 16, "CampusID": 244, "Status": null, "County": "Wise" }, "geometry": { "type": "Point", "coordinates": [ -97.394930970588334, 33.360232669033728 ] } },
{ "type": "Feature", "properties": { "OBJECTID": 227, "NAME": "Pike", "GRADE": "Middle School", "SYMBOL": 92, "SCHOOL_SYM": 2, "ISD": "Northwest", "Visible": "Yes", "Address": "2200 Texan Dr, Justin, TX 76247", "ISDID": 8, "CampusID": 162, "Status": null, "County": "Denton" }, "geometry": { "type": "Point", "coordinates": [ -97.31744100006199, 33.027065999765099 ] } },
{ "type": "Feature", "properties": { "OBJECTID": 228, "NAME": "Argyle West", "GRADE": "Elementary School", "SYMBOL": 98, "SCHOOL_SYM": 1, "ISD": "Argyle", "Visible": "Yes", "Address": "1741 Old Justin Rd, Argyle, TX, 76226", "ISDID": 1, "CampusID": 5, "Status": null, "County": "Denton" }, "geometry": { "type": "Point", "coordinates": [ -97.228165812260656, 33.117673793555127 ] } },
{ "type": "Feature", "properties": { "OBJECTID": 229, "NAME": "Carrollton", "GRADE": "Elementary School", "SYMBOL": 98, "SCHOOL_SYM": 1, "ISD": "Carrollton-Farmers Branch", "Visible": "Yes", "Address": "1805 Pearl St, Carrollton, TX 75006", "ISDID": 12, "CampusID": 200, "Status": null, "County": "Dallas" }, "geometry": { "type": "Point", "coordinates": [ -96.894144000272007, 32.956775999474083 ] } },
{ "type": "Feature", "properties": { "OBJECTID": 230, "NAME": "Central", "GRADE": "Elementary School", "SYMBOL": 98, "SCHOOL_SYM": 1, "ISD": "Carrollton-Farmers Branch", "Visible": "Yes", "Address": "1600 S Perry Rd, Carrollton, TX 75006", "ISDID": 12, "CampusID": 201, "Status": null, "County": "Dallas" }, "geometry": { "type": "Point", "coordinates": [ -96.894058499890207, 32.945174999590364 ] } },
{ "type": "Feature", "properties": { "OBJECTID": 231, "NAME": "McCoy", "GRADE": "Elementary School", "SYMBOL": 98, "SCHOOL_SYM": 1, "ISD": "Carrollton-Farmers Branch", "Visible": "Yes", "Address": "2425 McCoy Rd, Carrollton, TX 75006", "ISDID": 12, "CampusID": 202, "Status": null, "County": "Dallas" }, "geometry": { "type": "Point", "coordinates": [ -96.899111999990836, 32.981408999595537 ] } },
{ "type": "Feature", "properties": { "OBJECTID": 232, "NAME": "McLaughlin Strickland", "GRADE": "Elementary School", "SYMBOL": 98, "SCHOOL_SYM": 1, "ISD": "Carrollton-Farmers Branch", "Visible": "Yes", "Address": "3030 Fyke Rd., Farmers Branch, TX 75234", "ISDID": 12, "CampusID": 203, "Status": null, "County": "Dallas" }, "geometry": { "type": "Point", "coordinates": [ -96.874901236451691, 32.946132169274819 ] } },
{ "type": "Feature", "properties": { "OBJECTID": 233, "NAME": "Barbara Bush", "GRADE": "Middle School", "SYMBOL": 92, "SCHOOL_SYM": 2, "ISD": "Carrollton-Farmers Branch", "Visible": "Yes", "Address": "515 Cowboys Pkwy, Irving, TX 75063", "ISDID": 12, "CampusID": 204, "Status": null, "County": "Dallas" }, "geometry": { "type": "Point", "coordinates": [ -96.954187500062361, 32.948423999214171 ] } },
{ "type": "Feature", "properties": { "OBJECTID": 234, "NAME": "Perry", "GRADE": "Middle School", "SYMBOL": 92, "SCHOOL_SYM": 2, "ISD": "Carrollton-Farmers Branch", "Visible": "Yes", "Address": "1709 Belt Line Rd, Carrollton, TX 75006", "ISDID": 12, "CampusID": 205, "Status": null, "County": "Dallas" }, "geometry": { "type": "Point", "coordinates": [ -96.896690999792099, 32.954570999352377 ] } },
{ "type": "Feature", "properties": { "OBJECTID": 235, "NAME": "Turner", "GRADE": "High School", "SYMBOL": 91, "SCHOOL_SYM": 3, "ISD": "Carrollton-Farmers Branch", "Visible": "Yes", "Address": "1600 S Josey Ln, Carrollton, TX 75006", "ISDID": 12, "CampusID": 206, "Status": null, "County": "Dallas" }, "geometry": { "type": "Point", "coordinates": [ -96.891921000173525, 32.947424999813023 ] } },
{ "type": "Feature", "properties": { "OBJECTID": 236, "NAME": "Union Park", "GRADE": "Elementary School", "SYMBOL": 98, "SCHOOL_SYM": 1, "ISD": "Denton", "Visible": "Yes", "Address": "7301 Fieldwood Way, Aubrey, TX, 76227", "ISDID": 3, "CampusID": 52, "Status": null, "County": "Denton" }, "geometry": { "type": "Point", "coordinates": [ -96.909259302428694, 33.236182324696244 ] } },
{ "type": "Feature", "properties": { "OBJECTID": 237, "NAME": "Christie", "GRADE": "Elementary School", "SYMBOL": 98, "SCHOOL_SYM": 1, "ISD": "Frisco", "Visible": "Yes", "Address": "10300 Huntington Rd, Frisco, TX, 75035", "ISDID": 14, "CampusID": 238, "Status": null, "County": "Collin" }, "geometry": { "type": "Point", "coordinates": [ -96.790850999670226, 33.148340999440173 ] } },
{ "type": "Feature", "properties": { "OBJECTID": 238, "NAME": "Smith", "GRADE": "Elementary School", "SYMBOL": 98, "SCHOOL_SYM": 1, "ISD": "Frisco", "Visible": "Yes", "Address": "9800 Sean Dr, Frisco, TX, 75035", "ISDID": 14, "CampusID": 239, "Status": null, "County": "Collin" }, "geometry": { "type": "Point", "coordinates": [ -96.796223755166508, 33.114341633318453 ] } },
{ "type": "Feature", "properties": { "OBJECTID": 239, "NAME": "Clark", "GRADE": "Middle School", "SYMBOL": 92, "SCHOOL_SYM": 2, "ISD": "Frisco", "Visible": "Yes", "Address": "4600 Colby Dr, Frisco, TX, 75035", "ISDID": 14, "CampusID": 240, "Status": null, "County": "Collin" }, "geometry": { "type": "Point", "coordinates": [ -96.79708799957892, 33.115526999748731 ] } },
{ "type": "Feature", "properties": { "OBJECTID": 240, "NAME": "Lebanon Trail", "GRADE": "High School", "SYMBOL": 91, "SCHOOL_SYM": 3, "ISD": "Frisco", "Visible": "Yes", "Address": "5151 Ohio Dr, Frisco, TX, 75035", "ISDID": 14, "CampusID": 241, "Status": null, "County": "Collin" }, "geometry": { "type": "Point", "coordinates": [ -96.800683499926436, 33.121673999958865 ] } },
{ "type": "Feature", "properties": { "OBJECTID": 241, "NAME": "Memorial", "GRADE": "High School", "SYMBOL": 91, "SCHOOL_SYM": 3, "ISD": "Frisco", "Visible": "Yes", "Address": "12300 Frisco St, Frisco, TX, 75033", "ISDID": 14, "CampusID": 242, "Status": null, "County": "Collin" }, "geometry": { "type": "Point", "coordinates": [ -96.82909199955192, 33.178697999938862 ] } },
{ "type": "Feature", "properties": { "OBJECTID": 242, "NAME": "Mill Street", "GRADE": "Elementary School", "SYMBOL": 98, "SCHOOL_SYM": 1, "ISD": "Lewisville", "Visible": "Yes", "Address": "601 South Mill Street, Lewisville, TX, 75057", "ISDID": 6, "CampusID": 131, "Status": null, "County": "Denton" }, "geometry": { "type": "Point", "coordinates": [ -96.994194843828325, 33.041350943354104 ] } },
{ "type": "Feature", "properties": { "OBJECTID": 243, "NAME": "Granger", "GRADE": "Elementary School", "SYMBOL": 98, "SCHOOL_SYM": 1, "ISD": "Northwest", "Visible": "Yes", "Address": "12771 Saratoga Springs Circle, Fort Worth, TX, 76244", "ISDID": 8, "CampusID": 163, "Status": null, "County": "Tarrant" }, "geometry": { "type": "Point", "coordinates": [ -97.290046827266863, 32.958674014077424 ] } },
{ "type": "Feature", "properties": { "OBJECTID": 244, "NAME": "Haslet", "GRADE": "Elementary School", "SYMBOL": 98, "SCHOOL_SYM": 1, "ISD": "Northwest", "Visible": "Yes", "Address": "1188 Wisdom Way Dr, Haslet, Texas 76052", "ISDID": 8, "CampusID": 295, "Status": null, "County": "Tarrant" }, "geometry": { "type": "Point", "coordinates": [ -97.365362907113507, 32.959283320657718 ] } },
{ "type": "Feature", "properties": { "OBJECTID": 246, "NAME": "Jackie Fuller", "GRADE": "Elementary School", "SYMBOL": 98, "SCHOOL_SYM": 1, "ISD": "Aubrey", "Visible": "Yes", "Address": "2836 Lake Valley Rd, Aubrey, TX 76227", "ISDID": 2, "CampusID": 286, "Status": null, "County": "Denton" }, "geometry": { "type": "Point", "coordinates": [ -96.948689958843502, 33.254670102584313 ] } },
{ "type": "Feature", "properties": { "OBJECTID": 646, "NAME": "Marcus - 9th Grade Campus", "GRADE": "High School", "SYMBOL": 91, "SCHOOL_SYM": 3, "ISD": "Lewisville", "Visible": "Yes", "Address": "5707C Morriss Rd, Flower Mound, TX 75028", "ISDID": 6, "CampusID": 287, "Status": null, "County": "Denton" }, "geometry": { "type": "Point", "coordinates": [ -97.063921127303615, 33.063314515457932 ] } },
{ "type": "Feature", "properties": { "OBJECTID": 647, "NAME": "Flower Mound - 9th Grade Campus", "GRADE": "High School", "SYMBOL": 91, "SCHOOL_SYM": 3, "ISD": "Lewisville", "Visible": "Yes", "Address": "3411A Peters Colony Rd, Flower Mound, TX 75022", "ISDID": 6, "CampusID": 288, "Status": null, "County": "Denton" }, "geometry": { "type": "Point", "coordinates": [ -97.080840073673002, 33.031839771500245 ] } },
{ "type": "Feature", "properties": { "OBJECTID": 1046, "NAME": "William Rushing", "GRADE": "Middle School", "SYMBOL": 92, "SCHOOL_SYM": 2, "ISD": "Prosper", "Visible": "Yes", "Address": "3080 Fishtrap Road. Prosper, Tx 75078", "ISDID": 15, "CampusID": 289, "Status": null, "County": "Denton" }, "geometry": { "type": "Point", "coordinates": [ -96.850653101064239, 33.231558805245278 ] } },
{ "type": "Feature", "properties": { "OBJECTID": 1048, "NAME": "Chuck & Cindy Stuber", "GRADE": "Elementary School", "SYMBOL": 98, "SCHOOL_SYM": 1, "ISD": "Prosper", "Visible": "Yes", "Address": "721 Village Park Lane, Prosper, TX 75078", "ISDID": 15, "CampusID": 290, "Status": null, "County": "Denton" }, "geometry": { "type": "Point", "coordinates": [ -96.842661412740682, 33.228933275059994 ] } },
{ "type": "Feature", "properties": { "OBJECTID": 1049, "NAME": "Bryant", "GRADE": "Elementary School", "SYMBOL": 98, "SCHOOL_SYM": 1, "ISD": "Prosper", "Visible": "Yes", "Address": "3830 Freeman Way, Prosper, TX 75078", "ISDID": 15, "CampusID": 291, "Status": null, "County": "Denton" }, "geometry": { "type": "Point", "coordinates": [ -96.862285090697654, 33.24001567201563 ] } },
{ "type": "Feature", "properties": { "OBJECTID": 1050, "NAME": "Memorial", "GRADE": "Elementary School", "SYMBOL": 98, "SCHOOL_SYM": 1, "ISD": "Lewisville", "Visible": "Yes", "Address": "1001 N Josey Ln, Lewisville", "ISDID": 6, "CampusID": 292, "Status": null, "County": "Denton" }, "geometry": { "type": "Point", "coordinates": [ -96.886223640728431, 33.057569372298254 ] } },
{ "type": "Feature", "properties": { "OBJECTID": 1450, "NAME": "Northest Special Programs Center", "GRADE": "K-12", "SYMBOL": 98, "SCHOOL_SYM": 1, "ISD": "Northwest", "Visible": "Yes", "Address": "501 Schoolhouse Rd, Haslet, Texas 76052", "ISDID": 8, "CampusID": 164, "Status": null, "County": "Tarrant" }, "geometry": { "type": "Point", "coordinates": [ -97.348513965221414, 32.968071002301556 ] } },
{ "type": "Feature", "properties": { "OBJECTID": 1451, "NAME": "Pat Cheek", "GRADE": "Middle School", "SYMBOL": 98, "SCHOOL_SYM": 2, "ISD": "Denton", "Visible": "No", "Address": "Denton Way, Prosper, TX, 76227", "ISDID": 3, "CampusID": 296, "Status": "Under Construction - Summer 23", "County": "Denton" }, "geometry": { "type": "Point", "coordinates": [ -96.890271171646646, 33.237215532010914 ] } },
{ "type": "Feature", "properties": { "OBJECTID": 1452, "NAME": "Sandbrock Ranch", "GRADE": "Elementary School", "SYMBOL": 98, "SCHOOL_SYM": 1, "ISD": "Denton", "Visible": "Yes", "Address": "3690 Hunter St, Aubrey, TX, 76227", "ISDID": 3, "CampusID": 297, "Status": "", "County": "Denton" }, "geometry": { "type": "Point", "coordinates": [ -96.899219086248763, 33.260154385710713 ] } },
{ "type": "Feature", "properties": { "OBJECTID": 1453, "NAME": "Panther Creek", "GRADE": "High School", "SYMBOL": 98, "SCHOOL_SYM": 3, "ISD": "Frisco", "Visible": "Yes", "Address": "1875 PGA Pkwy, Frisco, TX 75068", "ISDID": 14, "CampusID": 298, "Status": null, "County": "Denton" }, "geometry": { "type": "Point", "coordinates": [ -96.863135658217672, 33.214278341966043 ] } },
{ "type": "Feature", "properties": { "OBJECTID": 1454, "NAME": "Minett", "GRADE": "Elementary School", "SYMBOL": 98, "SCHOOL_SYM": 1, "ISD": "Frisco", "Visible": "Yes", "Address": "16000 Peyton Abbey Rd, Frisco, TX 75033", "ISDID": 14, "CampusID": 299, "Status": null, "County": "Denton" }, "geometry": { "type": "Point", "coordinates": [ -96.876753946480207, 33.212206993898938 ] } },
{ "type": "Feature", "properties": { "OBJECTID": 1455, "NAME": "Leadership Prep", "GRADE": "Elementary School", "SYMBOL": null, "SCHOOL_SYM": 4, "ISD": "", "Visible": "Yes", "Address": "8500 Teel Pkwy, Frisco, TX 75033", "ISDID": 0, "CampusID": 274, "Status": "Private", "County": "Denton" }, "geometry": { "type": "Point", "coordinates": [ -96.862951990928551, 33.148686011755515 ] } },
{ "type": "Feature", "properties": { "OBJECTID": 1456, "NAME": "Leadership Prep", "GRADE": "Secondary", "SYMBOL": null, "SCHOOL_SYM": 4, "ISD": "", "Visible": "Yes", "Address": "8100 Teel Pkwy, Frisco, TX 75033", "ISDID": 0, "CampusID": 275, "Status": "Private", "County": "Denton" }, "geometry": { "type": "Point", "coordinates": [ -96.863925968247131, 33.146280991670089 ] } },
{ "type": "Feature", "properties": { "OBJECTID": 1457, "NAME": "Jerry R. Walker", "GRADE": "Middle School", "SYMBOL": 98, "SCHOOL_SYM": 2, "ISD": "Little Elm", "Visible": "Yes", "Address": "633 French Settlement Rd, Little Elm, TX 75068", "ISDID": 7, "CampusID": 300, "Status": null, "County": "Denton" }, "geometry": { "type": "Point", "coordinates": [ -96.972384285143264, 33.160137861078489 ] } },
{ "type": "Feature", "properties": { "OBJECTID": 1458, "NAME": "Lowell H. Strike", "GRADE": "Middle School", "SYMBOL": 92, "SCHOOL_SYM": 2, "ISD": "Little Elm", "Visible": "Yes", "Address": "8798 Scotty's Lake Lane, The Colony, TX 75056", "ISDID": 7, "CampusID": 301, "Status": null, "County": "Denton" }, "geometry": { "type": "Point", "coordinates": [ -96.906598718617474, 33.121431898090805 ] } },
{ "type": "Feature", "properties": { "OBJECTID": 1459, "NAME": "Lance Thompson", "GRADE": "Elementary School", "SYMBOL": 98, "SCHOOL_SYM": 1, "ISD": "Northwest", "Visible": "Yes", "Address": "821 Hawks Wy, Argyle, TX 76247", "ISDID": 8, "CampusID": 302, "Status": null, "County": "Denton" }, "geometry": { "type": "Point", "coordinates": [ -97.240520015991791, 33.113093014276636 ] } },
{ "type": "Feature", "properties": { "OBJECTID": 1460, "NAME": "Denton Classical Academy", "GRADE": "Elementary School", "SYMBOL": null, "SCHOOL_SYM": 4, "ISD": "", "Visible": "Yes", "Address": "4420 Country Club Rd, Denton, TX 76210", "ISDID": 0, "CampusID": 270, "Status": "Charter", "County": "Denton" }, "geometry": { "type": "Point", "coordinates": [ -97.142712006554333, 33.158380982213409 ] } },
{ "type": "Feature", "properties": { "OBJECTID": 1461, "NAME": "Founders Classical Academy", "GRADE": "7-12", "SYMBOL": null, "SCHOOL_SYM": 4, "ISD": "", "Visible": "Yes", "Address": "3600 Meadowview Dr., Corinth, TX 76210", "ISDID": 0, "CampusID": 271, "Status": null, "County": "Denton" }, "geometry": { "type": "Point", "coordinates": [ -97.049800035131824, 33.138830988915139 ] } },
{ "type": "Feature", "properties": { "OBJECTID": 1462, "NAME": "Founders Classical Academy", "GRADE": "K-6", "SYMBOL": null, "SCHOOL_SYM": 4, "ISD": "", "Visible": "Yes", "Address": "800 Point Vista Rd, Hickory Creek, TX 76210", "ISDID": 0, "CampusID": 272, "Status": null, "County": "Denton" }, "geometry": { "type": "Point", "coordinates": [ -97.047320372096081, 33.12639849630186 ] } },
{ "type": "Feature", "properties": { "OBJECTID": 1463, "NAME": "Founders Classical Academy", "GRADE": "K-12", "SYMBOL": null, "SCHOOL_SYM": 4, "ISD": "", "Visible": "Yes", "Address": "4901 Cross Timbers Rd., Flower Mound, TX 75028", "ISDID": 0, "CampusID": 285, "Status": "", "County": "Denton" }, "geometry": { "type": "Point", "coordinates": [ -97.106170010366384, 33.04509700383354 ] } },
{ "type": "Feature", "properties": { "OBJECTID": 1464, "NAME": "Virtual Learning Academy", "GRADE": "Elementary School", "SYMBOL": 98, "SCHOOL_SYM": 1, "ISD": "", "Visible": "Yes", "Address": "1680 College Pkwy Lewisville, TX 75077", "ISDID": 0, "CampusID": 305, "Status": "Virtual", "County": "Denton" }, "geometry": { "type": "Point", "coordinates": [ -97.034396025216878, 33.044015989888337 ] } },
{ "type": "Feature", "properties": { "OBJECTID": 1465, "NAME": "Technology Exploration & Career ", "GRADE": "High School", "SYMBOL": 91, "SCHOOL_SYM": 3, "ISD": "Lewisville", "Visible": "Yes", "Address": "1250 W Round Grove Rd, Lewisville, TX 75067", "ISDID": 6, "CampusID": 303, "Status": null, "County": "Denton" }, "geometry": { "type": "Point", "coordinates": [ -97.022817704218966, 33.005566785016669 ] } },
{ "type": "Feature", "properties": { "OBJECTID": 1466, "NAME": "Founders Classical Academy ", "GRADE": "K-12", "SYMBOL": null, "SCHOOL_SYM": 4, "ISD": "", "Visible": "Yes", "Address": "1010 Bellaire Blvd, Lewisville, TX 75067", "ISDID": 0, "CampusID": 284, "Status": null, "County": "Denton" }, "geometry": { "type": "Point", "coordinates": [ -97.015134997733654, 33.026287007782038 ] } },
{ "type": "Feature", "properties": { "OBJECTID": 1467, "NAME": "Harmony School of Innovation", "GRADE": "K-5", "SYMBOL": 98, "SCHOOL_SYM": 1, "ISD": "North Texas", "Visible": "Yes", "Address": "1024 Rosemeade Pkwy, Carrollton, TX 75007", "ISDID": 0, "CampusID": 277, "Status": null, "County": "Denton" }, "geometry": { "type": "Point", "coordinates": [ -96.913854031488, 33.011694994191771 ] } },
{ "type": "Feature", "properties": { "OBJECTID": 1468, "NAME": "Trivium Academy", "GRADE": "K-12", "SYMBOL": null, "SCHOOL_SYM": 4, "ISD": "Trivium Academy", "Visible": "Yes", "Address": "2205 E Hebron Pkwy, Carrollton, TX 75010", "ISDID": 0, "CampusID": 276, "Status": "Charter", "County": "Denton" }, "geometry": { "type": "Point", "coordinates": [ -96.866181035413874, 33.025805006316631 ] } },
{ "type": "Feature", "properties": { "OBJECTID": 1469, "NAME": "North Texas Collegiate Academy-E", "GRADE": "K-8", "SYMBOL": null, "SCHOOL_SYM": 4, "ISD": "NCTA", "Visible": "Yes", "Address": "1851 Oak Grove Pkwy, Little Elm, TX 75068", "ISDID": 0, "CampusID": 273, "Status": "Charter", "County": "Denton" }, "geometry": { "type": "Point", "coordinates": [ -96.967974974036679, 33.165792009280743 ] } },
{ "type": "Feature", "properties": { "OBJECTID": 1470, "NAME": "North Texas Collegiate Academy-N", "GRADE": "K-8", "SYMBOL": null, "SCHOOL_SYM": 4, "ISD": "NCTA", "Visible": "Yes", "Address": "4601 N. Interstate 35, Denton, TX 76207", "ISDID": 0, "CampusID": 269, "Status": "Charter", "County": "Denton" }, "geometry": { "type": "Point", "coordinates": [ -97.177781973562176, 33.239266012439103 ] } },
{ "type": "Feature", "properties": { "OBJECTID": 1471, "NAME": "North Texas Collegiate Academy-S", "GRADE": "K-8", "SYMBOL": null, "SCHOOL_SYM": 4, "ISD": "NTCA", "Visible": "Yes", "Address": "968 Raldon, Lewisville, TX 75067", "ISDID": 0, "CampusID": 283, "Status": "Charter", "County": "Denton" }, "geometry": { "type": "Point", "coordinates": [ -97.009425999731022, 33.032360995735147 ] } },
{ "type": "Feature", "properties": { "OBJECTID": 1472, "NAME": "Winfree Academy Charter ", "GRADE": "High School", "SYMBOL": null, "SCHOOL_SYM": 4, "ISD": "", "Visible": "No", "Address": "341 Bennett Ln, Lewisville, Tx 75067", "ISDID": 0, "CampusID": 282, "Status": "Charter", "County": "Denton" }, "geometry": { "type": "Point", "coordinates": [ -96.988991004347255, 33.027965987305926 ] } },
{ "type": "Feature", "properties": { "OBJECTID": 1473, "NAME": "iSchool of Lewisville", "GRADE": "7-12", "SYMBOL": null, "SCHOOL_SYM": 4, "ISD": "", "Visible": "No", "Address": "650 Bennett Ln, Lewisville, Tx 75067", "ISDID": 0, "CampusID": 279, "Status": "", "County": "Denton" }, "geometry": { "type": "Point", "coordinates": [ -96.974932037643029, 33.025850981504156 ] } },
{ "type": "Feature", "properties": { "OBJECTID": 1474, "NAME": "iSchool of Lewisville", "GRADE": "K-6", "SYMBOL": null, "SCHOOL_SYM": 4, "ISD": "", "Visible": "Yes", "Address": "1800 Lakeway Dr, Ste 100, Lewisville, Texas, 75057", "ISDID": 0, "CampusID": 304, "Status": null, "County": "Denton" }, "geometry": { "type": "Point", "coordinates": [ -96.977688008366215, 33.019328980130908 ] } },
{ "type": "Feature", "properties": { "OBJECTID": 1661, "NAME": "Merryhill School Trophy Club", "GRADE": "Pre-K", "SYMBOL": null, "SCHOOL_SYM": null, "ISD": " ", "Visible": " ", "Address": "50 Village Trail, Trophy Club, TX 76262", "ISDID": 0, "CampusID": 257, "Status": null, "County": "Denton" }, "geometry": { "type": "Point", "coordinates": [ -97.209167003799223, 33.002130991596012 ] } },
{ "type": "Feature", "properties": { "OBJECTID": 1662, "NAME": "Montessori Episcopal School", "GRADE": "Pre-K", "SYMBOL": null, "SCHOOL_SYM": null, "ISD": "MES", "Visible": " ", "Address": "602 N Old Orchard Ln, Lewisville, TX 75067", "ISDID": 0, "CampusID": 258, "Status": " ", "County": "Denton" }, "geometry": { "type": "Point", "coordinates": [ -97.027084994126838, 33.048248012948456 ] } },
{ "type": "Feature", "properties": { "OBJECTID": 1663, "NAME": "Dale Jackson Career Center", "GRADE": "High School", "SYMBOL": 91, "SCHOOL_SYM": 3, "ISD": "Lewisville", "Visible": "No", "Address": "1597 S Edmonds Ln, Lewisville, TX 75067", "ISDID": 6, "CampusID": 128, "Status": null, "County": "Denton" }, "geometry": { "type": "Point", "coordinates": [ -97.009020986775667, 33.025551998826366 ] } },
{ "type": "Feature", "properties": { "OBJECTID": 1664, "NAME": "Immaculate Conception Catholic", "GRADE": "Pre-K", "SYMBOL": null, "SCHOOL_SYM": null, "ISD": " ", "Visible": " ", "Address": "2301 N Bonnie Brae St, Denton, TX 76207", "ISDID": 0, "CampusID": 250, "Status": " ", "County": "Denton" }, "geometry": { "type": "Point", "coordinates": [ -97.160854558578336, 33.23828410523052 ] } },
{ "type": "Feature", "properties": { "OBJECTID": 1665, "NAME": "Denton Calvary Academy", "GRADE": "Kindergarten", "SYMBOL": null, "SCHOOL_SYM": null, "ISD": " ", "Visible": " ", "Address": "1910 E University Dr, Denton, TX 76209", "ISDID": 0, "CampusID": 248, "Status": null, "County": "Denton" }, "geometry": { "type": "Point", "coordinates": [ -97.107158991423276, 33.234888982393819 ] } },
{ "type": "Feature", "properties": { "OBJECTID": 1667, "NAME": "Explorations Preparatory School", "GRADE": "Pre-K", "SYMBOL": null, "SCHOOL_SYM": null, "ISD": " ", "Visible": " ", "Address": "1501 Flower Mound Rd, Flower Mound, TX 75028", "ISDID": 0, "CampusID": 249, "Status": null, "County": "Denton" }, "geometry": { "type": "Point", "coordinates": [ -97.053870035702687, 33.013075996665549 ] } },
{ "type": "Feature", "properties": { "OBJECTID": 1669, "NAME": "Harmony Science Academy - Carrolton", "GRADE": "6th - 12", "SYMBOL": null, "SCHOOL_SYM": null, "ISD": "North Texas", "Visible": " ", "Address": "1025 W Rosemeade Pkwy, Carrollton, TX 75007", "ISDID": 0, "CampusID": 278, "Status": null, "County": "Denton" }, "geometry": { "type": "Point", "coordinates": [ -96.913119547319027, 33.01057008092836 ] } },
{ "type": "Feature", "properties": { "OBJECTID": 1670, "NAME": "Hedrick", "GRADE": " Elementary School", "SYMBOL": 98, "SCHOOL_SYM": 1, "ISD": "Lewisville", "Visible": "Yes", "Address": "1526 Bellaire Blvd. Lewisville, TX 75067", "ISDID": 6, "CampusID": 84, "Status": null, "County": "Denton" }, "geometry": { "type": "Point", "coordinates": [ -97.025390508281049, 33.027003937336154 ] } },
{ "type": "Feature", "properties": { "OBJECTID": 1671, "NAME": "Kids R Kids No. 65 North", "GRADE": "Pre-K", "SYMBOL": null, "SCHOOL_SYM": null, "ISD": " ", "Visible": " ", "Address": "2501 Justin Rd, Flower Mound, TX 75028", "ISDID": 0, "CampusID": 251, "Status": " ", "County": "Denton" }, "geometry": { "type": "Point", "coordinates": [ -97.066654030711632, 33.073073995026959 ] } },
{ "type": "Feature", "properties": { "OBJECTID": 1672, "NAME": "Knowledge Seekers Christian School", "GRADE": "Pre-K", "SYMBOL": null, "SCHOOL_SYM": null, "ISD": " ", "Visible": " ", "Address": "1471 W Corporate Dr, Lewisville, TX 75067", "ISDID": 0, "CampusID": 252, "Status": null, "County": "Denton" }, "geometry": { "type": "Point", "coordinates": [ -97.035487013323234, 33.021421019150651 ] } },
{ "type": "Feature", "properties": { "OBJECTID": 1673, "NAME": "Koan School", "GRADE": "Kindergarten", "SYMBOL": null, "SCHOOL_SYM": null, "ISD": " ", "Visible": " ", "Address": "6441 Fishtrap Rd, Denton, TX 76208", "ISDID": 0, "CampusID": 253, "Status": null, "County": "Denton" }, "geometry": { "type": "Point", "coordinates": [ -97.05958003938396, 33.239737997679363 ] } },
{ "type": "Feature", "properties": { "OBJECTID": 1674, "NAME": "Lakeland Christian Academy", "GRADE": "Pre-K", "SYMBOL": null, "SCHOOL_SYM": null, "ISD": " ", "Visible": " ", "Address": "397 S Stemmons Fwy, Lewisville, TX 75067", "ISDID": 0, "CampusID": 254, "Status": null, "County": "Denton" }, "geometry": { "type": "Point", "coordinates": [ -97.008696020255414, 33.0436059892115 ] } },
{ "type": "Feature", "properties": { "OBJECTID": 1675, "NAME": "Lamb of God Preschool", "GRADE": "Pre-K", "SYMBOL": null, "SCHOOL_SYM": null, "ISD": " ", "Visible": " ", "Address": "1401 Cross Timbers Rd, Flower Mound, TX 75028", "ISDID": 0, "CampusID": 255, "Status": null, "County": "Denton" }, "geometry": { "type": "Point", "coordinates": [ -97.048982967123536, 33.038405018088838 ] } },
{ "type": "Feature", "properties": { "OBJECTID": 1676, "NAME": "Liberty Christian School", "GRADE": "Pre-K", "SYMBOL": null, "SCHOOL_SYM": null, "ISD": " ", "Visible": " ", "Address": "1301 US-377, Argyle, TX 76226", "ISDID": 0, "CampusID": 256, "Status": null, "County": "Denton" }, "geometry": { "type": "Point", "coordinates": [ -97.194963937514245, 33.086005946521801 ] } },
{ "type": "Feature", "properties": { "OBJECTID": 1677, "NAME": "Premier HS Online", "GRADE": "9th - 12", "SYMBOL": null, "SCHOOL_SYM": null, "ISD": " ", "Visible": " ", "Address": "1301 WATERS RIDGE DR, LEWISVILLE, TX, 75057", "ISDID": 0, "CampusID": 280, "Status": null, "County": "Denton" }, "geometry": { "type": "Point", "coordinates": [ -96.97473900271163, 33.02587000795846 ] } },
{ "type": "Feature", "properties": { "OBJECTID": 1678, "NAME": "Primrose School of Hickory Creek", "GRADE": "Pre-K", "SYMBOL": null, "SCHOOL_SYM": null, "ISD": "", "Visible": " ", "Address": "1011 Ronald Reagan Ave, Hickory Creek, TX 75065", "ISDID": 0, "CampusID": 259, "Status": null, "County": "Denton" }, "geometry": { "type": "Point", "coordinates": [ -97.04802801664205, 33.128799988304486 ] } },
{ "type": "Feature", "properties": { "OBJECTID": 1679, "NAME": "Primrose School of Lantana", "GRADE": "Pre-K", "SYMBOL": null, "SCHOOL_SYM": null, "ISD": "", "Visible": " ", "Address": "7020 Justin Rd, Lantana, TX 76226", "ISDID": 0, "CampusID": 260, "Status": null, "County": "Denton" }, "geometry": { "type": "Point", "coordinates": [ -97.110245962067637, 33.072401012107427 ] } },
{ "type": "Feature", "properties": { "OBJECTID": 1680, "NAME": "STEM Academy", "GRADE": "PK - 12", "SYMBOL": null, "SCHOOL_SYM": null, "ISD": " ", "Visible": " ", "Address": "650 Bennett Lane Lewisville, TX 75057", "ISDID": 0, "CampusID": 281, "Status": null, "County": "Denton" }, "geometry": { "type": "Point", "coordinates": [ -96.973724960205715, 33.026511013853529 ] } },
{ "type": "Feature", "properties": { "OBJECTID": 1681, "NAME": "Temple Christian Academy", "GRADE": "1", "SYMBOL": null, "SCHOOL_SYM": null, "ISD": " ", "Visible": " ", "Address": "2501 Northshore Blvd, Flower Mound, TX 75028", "ISDID": 0, "CampusID": 261, "Status": null, "County": "Denton" }, "geometry": { "type": "Point", "coordinates": [ -97.068181836785129, 33.010504915077135 ] } },
{ "type": "Feature", "properties": { "OBJECTID": 1682, "NAME": "The Children's Courtyard #3015", "GRADE": "Pre-K", "SYMBOL": null, "SCHOOL_SYM": null, "ISD": " ", "Visible": " ", "Address": "2155 Willow Grove Drive, Lewisville, TX", "ISDID": 0, "CampusID": 262, "Status": null, "County": "Denton" }, "geometry": { "type": "Point", "coordinates": [ -97.008536009739686, 33.006050997848327 ] } },
{ "type": "Feature", "properties": { "OBJECTID": 1683, "NAME": "The Children's Courtyard #3017", "GRADE": "Pre-K", "SYMBOL": null, "SCHOOL_SYM": null, "ISD": " ", "Visible": " ", "Address": "2501 Morriss Rd, Flower Mound, TX", "ISDID": 0, "CampusID": 263, "Status": null, "County": "Denton" }, "geometry": { "type": "Point", "coordinates": [ -97.055994009657837, 33.01926498412336 ] } },
{ "type": "Feature", "properties": { "OBJECTID": 1684, "NAME": "The Children's Courtyard #3024", "GRADE": "Pre-K", "SYMBOL": null, "SCHOOL_SYM": null, "ISD": " ", "Visible": " ", "Address": "1504 N Garden Ridge Blvd, Lewisville, TX", "ISDID": 0, "CampusID": 264, "Status": null, "County": "Denton" }, "geometry": { "type": "Point", "coordinates": [ -97.036178017253235, 33.064186998536428 ] } },
{ "type": "Feature", "properties": { "OBJECTID": 1685, "NAME": "The Children's Courtyard #3034", "GRADE": "Pre-K", "SYMBOL": null, "SCHOOL_SYM": null, "ISD": " ", "Visible": " ", "Address": "2160 S Edmonds Ln, Lewisville, TX", "ISDID": 0, "CampusID": 265, "Status": null, "County": "Denton" }, "geometry": { "type": "Point", "coordinates": [ -97.00707303222849, 33.006184018599924 ] } },
{ "type": "Feature", "properties": { "OBJECTID": 1686, "NAME": "The Children's Courtyard #3036", "GRADE": "Pre-K", "SYMBOL": null, "SCHOOL_SYM": null, "ISD": " ", "Visible": " ", "Address": "3700 Flower Mound Rd, Flower Mound, TX 75022", "ISDID": 0, "CampusID": 266, "Status": null, "County": "Denton" }, "geometry": { "type": "Point", "coordinates": [ -97.086839739316687, 33.026876335355489 ] } },
{ "type": "Feature", "properties": { "OBJECTID": 1687, "NAME": "The Selwyn School", "GRADE": "Pre-K", "SYMBOL": null, "SCHOOL_SYM": null, "ISD": " ", "Visible": " ", "Address": "2270 Copper Canyon Road", "ISDID": 0, "CampusID": 267, "Status": null, "County": "Denton" }, "geometry": { "type": "Point", "coordinates": [ -97.04652528778729, 33.114135717071925 ] } },
{ "type": "Feature", "properties": { "OBJECTID": 1688, "NAME": "Willow Bend Academy Lewisville", "GRADE": "5", "SYMBOL": null, "SCHOOL_SYM": null, "ISD": " ", "Visible": " ", "Address": "101 E. Southwest Pkwy Suite 101 Lewisville Texas 75067", "ISDID": 0, "CampusID": 268, "Status": null, "County": "Denton" }, "geometry": { "type": "Point", "coordinates": [ -96.992291964884274, 33.019637979406752 ] } },
{ "type": "Feature", "properties": { "OBJECTID": 1689, "NAME": "Carrollton Christian Academy", "GRADE": "Kindergarten", "SYMBOL": null, "SCHOOL_SYM": null, "ISD": " ", "Visible": " ", "Address": "1529 E Hebron Pkwy, Carrollton, TX 75010", "ISDID": 0, "CampusID": 245, "Status": null, "County": "Denton" }, "geometry": { "type": "Point", "coordinates": [ -96.90052102138911, 33.024477983642512 ] } },
{ "type": "Feature", "properties": { "OBJECTID": 1690, "NAME": "Christian Academy of America", "GRADE": "Kindergarten", "SYMBOL": null, "SCHOOL_SYM": null, "ISD": " ", "Visible": " ", "Address": "175 Double Oaks Dr, Lewisville Texas 75077", "ISDID": 0, "CampusID": 246, "Status": " ", "County": "Denton" }, "geometry": { "type": "Point", "coordinates": [ -97.117801996328794, 33.062615014152563 ] } },
{ "type": "Feature", "properties": { "OBJECTID": 1691, "NAME": "Coram Deo Academy", "GRADE": "Pre-K", "SYMBOL": null, "SCHOOL_SYM": null, "ISD": " ", "Visible": " ", "Address": "4900 Wichita Trail, Flower Mound, TX 75022", "ISDID": 0, "CampusID": 247, "Status": null, "County": "Denton" }, "geometry": { "type": "Point", "coordinates": [ -97.10611229151958, 33.021434187508881 ] } },
{ "type": "Feature", "properties": { "OBJECTID": 1692, "NAME": "Primrose School of Highland Village", "GRADE": "Pre-K", "SYMBOL": null, "SCHOOL_SYM": null, "ISD": "", "Visible": null, "Address": "2100 Highland Village Rd, Highland Village, TX 75077", "ISDID": 0, "CampusID": 307, "Status": null, "County": "Denton" }, "geometry": { "type": "Point", "coordinates": [ -97.057188503854988, 33.074590029188322 ] } },
{ "type": "Feature", "properties": { "OBJECTID": 1693, "NAME": "Primrose School of North Lewisville", "GRADE": "Pre-K", "SYMBOL": null, "SCHOOL_SYM": null, "ISD": "", "Visible": null, "Address": "1480 N. Valley Pkwy, Lewisville, TX 75077", "ISDID": 0, "CampusID": 308, "Status": null, "County": "Denton" }, "geometry": { "type": "Point", "coordinates": [ -97.034775052570396, 33.05626126105934 ] } },
{ "type": "Feature", "properties": { "OBJECTID": 1694, "NAME": "Primrose School of NE Flower Mound", "GRADE": "P", "SYMBOL": null, "SCHOOL_SYM": null, "ISD": "", "Visible": null, "Address": "3939 Morriss Rd, Flower Mound, TX 75028", "ISDID": 0, "CampusID": 309, "Status": null, "County": "Denton" }, "geometry": { "type": "Point", "coordinates": [ -97.062820051603339, 33.039489438373941 ] } },
{ "type": "Feature", "properties": { "OBJECTID": 1695, "NAME": "Primrose School of Wellington", "GRADE": "Pre-K", "SYMBOL": null, "SCHOOL_SYM": null, "ISD": "", "Visible": null, "Address": "3708 Flower Mound Rd, Flower Mound, TX 75022", "ISDID": 0, "CampusID": 310, "Status": null, "County": "Denton" }, "geometry": { "type": "Point", "coordinates": [ -97.087590818849208, 33.027750247503093 ] } },
{ "type": "Feature", "properties": { "OBJECTID": 1696, "NAME": "Primrose School of Old Orchard", "GRADE": "Pre-K", "SYMBOL": null, "SCHOOL_SYM": null, "ISD": "", "Visible": null, "Address": "1253 West Round Grove Rd, Lewisville, TX 75067", "ISDID": 0, "CampusID": 311, "Status": null, "County": "Denton" }, "geometry": { "type": "Point", "coordinates": [ -97.025965064994196, 33.009767516174044 ] } },
{ "type": "Feature", "properties": { "OBJECTID": 1697, "NAME": "Argyle South", "GRADE": "Elementary School", "SYMBOL": 98, "SCHOOL_SYM": 1, "ISD": "Argyle", "Visible": "Yes", "Address": "11800 Denton Creek Blvd. Flower Mound , TX 76226", "ISDID": 1, "CampusID": 312, "Status": null, "County": "Denton" }, "geometry": { "type": "Point", "coordinates": [ -97.214085448264683, 33.079406132508517 ] } },
{ "type": "Feature", "properties": { "OBJECTID": 1713, "NAME": "Caprock", "GRADE": "Elementary", "SYMBOL": 98, "SCHOOL_SYM": 1, "ISD": "Keller", "Visible": "Yes", "Address": "12301 Grey Twig Dr", "ISDID": null, "CampusID": null, "Status": "Active", "County": "Tarrant" }, "geometry": { "type": "Point", "coordinates": [ -97.291418402493889, 32.949724821667829 ] } },
{ "type": "Feature", "properties": { "OBJECTID": 1714, "NAME": "Timber Creek ", "GRADE": "High School", "SYMBOL": 91, "SCHOOL_SYM": 3, "ISD": "Keller", "Visible": "Yes", "Address": "12350 Timberland Blvd", "ISDID": null, "CampusID": null, "Status": "Active", "County": "Tarrant" }, "geometry": { "type": "Point", "coordinates": [ -97.287304499643483, 32.949746999929033 ] } },
{ "type": "Feature", "properties": { "OBJECTID": 1715, "NAME": "Ridgeview ", "GRADE": "Elementary", "SYMBOL": 98, "SCHOOL_SYM": 1, "ISD": "Keller", "Visible": "Yes", "Address": "1601 Marshall Ridge Pkwy", "ISDID": null, "CampusID": null, "Status": "Active", "County": "Tarrant" }, "geometry": { "type": "Point", "coordinates": [ -97.240923000288575, 32.960807999187139 ] } },
{ "type": "Feature", "properties": { "OBJECTID": 1716, "NAME": "CW Worthington ", "GRADE": "Middle ", "SYMBOL": 92, "SCHOOL_SYM": 2, "ISD": "Northwest", "Visible": "No", "Address": "1045 John Day Rd N ", "ISDID": 8, "CampusID": null, "Status": "Future", "County": "Tarrant" }, "geometry": { "type": "Point", "coordinates": [ -97.354469769566265, 32.985674296940317 ] } },
{ "type": "Feature", "properties": { "OBJECTID": 1717, "NAME": "Corinth ", "GRADE": "Elementary", "SYMBOL": 98, "SCHOOL_SYM": 1, "ISD": "Lake Dallas", "Visible": "Yes", "Address": "3501 Cliff Oaks Dr", "ISDID": 3, "CampusID": null, "Status": "Active", "County": "Denton" }, "geometry": { "type": "Point", "coordinates": [ -97.123914999442334, 33.195274999186687 ] } },
{ "type": "Feature", "properties": { "OBJECTID": 1719, "NAME": "Texas Academy of Math & Science", "GRADE": "9-12+", "SYMBOL": null, "SCHOOL_SYM": null, "ISD": "University of North Texas", "Visible": "Yes", "Address": "1167 Union Cir Sage Hall #202", "ISDID": null, "CampusID": null, "Status": "Active", "County": "Denton" }, "geometry": { "type": "Point", "coordinates": [ -97.145908523460861, 33.211667917889436 ] } },
{ "type": "Feature", "properties": { "OBJECTID": 1720, "NAME": "Denton", "GRADE": "High School", "SYMBOL": 91, "SCHOOL_SYM": 1, "ISD": "Denton", "Visible": "Yes", "Address": "3001 Bronco Way", "ISDID": 3, "CampusID": null, "Status": "Active", "County": "Denton" }, "geometry": { "type": "Point", "coordinates": [ -97.169094018893574, 33.251570661684539 ] } },
{ "type": "Feature", "properties": { "OBJECTID": 1721, "NAME": "Denton Co JJAEP", "GRADE": "Juvenile ", "SYMBOL": null, "SCHOOL_SYM": null, "ISD": "Krum ", "Visible": "Yes", "Address": "301 E Mckinney St", "ISDID": 4, "CampusID": null, "Status": "Active", "County": "Denton" }, "geometry": { "type": "Point", "coordinates": [ -97.12963799997803, 33.216893999740734 ] } },
{ "type": "Feature", "properties": { "OBJECTID": 1722, "NAME": "Ki Charter - Denton", "GRADE": "1-12", "SYMBOL": null, "SCHOOL_SYM": null, "ISD": "Charter School", "Visible": "Yes", "Address": "2026 W University Dr", "ISDID": null, "CampusID": null, "Status": "Active", "County": "Denton" }, "geometry": { "type": "Point", "coordinates": [ -97.156529999779082, 33.230780999750777 ] } },
{ "type": "Feature", "properties": { "OBJECTID": 1723, "NAME": "Denton CO JJAEP", "GRADE": null, "SYMBOL": null, "SCHOOL_SYM": null, "ISD": "Lewisville ", "Visible": "Yes", "Address": "214 S Woodrow Ln", "ISDID": 6, "CampusID": null, "Status": "Active", "County": "Denton" }, "geometry": { "type": "Point", "coordinates": [ -97.11203915056025, 33.211778042595093 ] } },
{ "type": "Feature", "properties": { "OBJECTID": 1724, "NAME": "Denton County JJAEP DFB Campus", "GRADE": null, "SYMBOL": null, "SCHOOL_SYM": null, "ISD": "Carrollton-Farmers Branch", "Visible": "Yes", "Address": "210 S Woodrow Ln", "ISDID": null, "CampusID": null, "Status": "Active", "County": "Denton" }, "geometry": { "type": "Point", "coordinates": [ -97.112510999650027, 33.212042999801824 ] } },
{ "type": "Feature", "properties": { "OBJECTID": 1725, "NAME": "Joe Dale Sparks Campus", "GRADE": null, "SYMBOL": null, "SCHOOL_SYM": null, "ISD": "Denton", "Visible": "Yes", "Address": "210 S Woodrow Ln", "ISDID": 3, "CampusID": null, "Status": "Active", "County": "Denton" }, "geometry": { "type": "Point", "coordinates": [ -97.112510999650027, 33.212042999801824 ] } },
{ "type": "Feature", "properties": { "OBJECTID": 1726, "NAME": "Denton Co JJAEP", "GRADE": "Juvenille", "SYMBOL": null, "SCHOOL_SYM": null, "ISD": "Argyle ", "Visible": "Yes", "Address": "210 S Woodrow Ln", "ISDID": 1, "CampusID": null, "Status": "Active", "County": "Denton" }, "geometry": { "type": "Point", "coordinates": [ -97.112510999650027, 33.212042999801824 ] } },
{ "type": "Feature", "properties": { "OBJECTID": 1727, "NAME": "Denton CO JJAEP", "GRADE": null, "SYMBOL": null, "SCHOOL_SYM": null, "ISD": "Denton ", "Visible": "Yes", "Address": "210 S Woodrow Ln", "ISDID": 3, "CampusID": null, "Status": "Active", "County": "Denton" }, "geometry": { "type": "Point", "coordinates": [ -97.112510999650027, 33.212042999801824 ] } },
{ "type": "Feature", "properties": { "OBJECTID": 1728, "NAME": "Regional Day Sch Deaf", "GRADE": "EE-12", "SYMBOL": null, "SCHOOL_SYM": null, "ISD": "Denton", "Visible": "Yes", "Address": "1303 N Elm St", "ISDID": 3, "CampusID": null, "Status": "Active", "County": "Denton" }, "geometry": { "type": "Point", "coordinates": [ -97.133859000375736, 33.225101999626318 ] } },
{ "type": "Feature", "properties": { "OBJECTID": 1729, "NAME": "Denton K-8 Virtual Academy", "GRADE": "K-8", "SYMBOL": null, "SCHOOL_SYM": null, "ISD": "Denton", "Visible": "Yes", "Address": "1307 N Locus St", "ISDID": 3, "CampusID": null, "Status": "Active", "County": "Denton" }, "geometry": { "type": "Point", "coordinates": [ -97.133062499575274, 33.225515999695787 ] } },
{ "type": "Feature", "properties": { "OBJECTID": 1730, "NAME": "Pat Hagan Cheek", "GRADE": "Middle", "SYMBOL": 92, "SCHOOL_SYM": 2, "ISD": "Denton", "Visible": "No", "Address": "1307 N Locust St", "ISDID": 0, "CampusID": null, "Status": "Future", "County": "Denton" }, "geometry": { "type": "Point", "coordinates": [ -97.133062499575274, 33.225515999695787 ] } },
{ "type": "Feature", "properties": { "OBJECTID": 1731, "NAME": "Argyle South ", "GRADE": "Elementary", "SYMBOL": 98, "SCHOOL_SYM": 1, "ISD": "Argyle", "Visible": "Yes", "Address": "11800 Denton Creek Blvd", "ISDID": 1, "CampusID": null, "Status": "Active", "County": "Denton" }, "geometry": { "type": "Point", "coordinates": [ -97.231816804290276, 33.085291159404392 ] } },
{ "type": "Feature", "properties": { "OBJECTID": 1732, "NAME": "Mitchell", "GRADE": "Elementary", "SYMBOL": 98, "SCHOOL_SYM": 1, "ISD": "Plano", "Visible": "Yes", "Address": "4223 Briargrove Ln", "ISDID": null, "CampusID": null, "Status": "Active", "County": "Collin" }, "geometry": { "type": "Point", "coordinates": [ -96.837542999914461, 32.993504999826733 ] } },
{ "type": "Feature", "properties": { "OBJECTID": 1734, "NAME": "Westlake Academy", "GRADE": "K-12", "SYMBOL": null, "SCHOOL_SYM": null, "ISD": "Charter", "Visible": "yes", "Address": "2600 J T Ottinger Rd", "ISDID": null, "CampusID": null, "Status": "Active", "County": "Tarrant" }, "geometry": { "type": "Point", "coordinates": [ -97.210730368792014, 32.984900043523957 ] } },
{ "type": "Feature", "properties": { "OBJECTID": 1735, "NAME": "Walnut Grove", "GRADE": "Elementary", "SYMBOL": 98, "SCHOOL_SYM": 1, "ISD": "Carroll", "Visible": "Yes", "Address": "25220 N White Chapel Blvd", "ISDID": null, "CampusID": null, "Status": "Active", "County": "Tarrant" }, "geometry": { "type": "Point", "coordinates": [ -97.152988500310542, 32.974820999666768 ] } },
{ "type": "Feature", "properties": { "OBJECTID": 1736, "NAME": "Tarrant Co JJAEP ", "GRADE": null, "SYMBOL": null, "SCHOOL_SYM": null, "ISD": "Carroll", "Visible": "Yes", "Address": "2400 N Carroll Ave", "ISDID": null, "CampusID": null, "Status": "Active", "County": "Tarrant" }, "geometry": { "type": "Point", "coordinates": [ -97.135685999933244, 32.972030999646982 ] } },
{ "type": "Feature", "properties": { "OBJECTID": 1737, "NAME": "Don T Durham Intermediate", "GRADE": "5 - 6 ", "SYMBOL": null, "SCHOOL_SYM": null, "ISD": "Carroll", "Visible": "Yes", "Address": "801 Shady Oaks", "ISDID": null, "CampusID": null, "Status": "Active", "County": "Tarrant" }, "geometry": { "type": "Point", "coordinates": [ -97.159623898002607, 32.951487421967329 ] } },
{ "type": "Feature", "properties": { "OBJECTID": 1738, "NAME": "Jack D Johnson ", "GRADE": "Elementary", "SYMBOL": 98, "SCHOOL_SYM": 1, "ISD": "Carroll", "Visible": "Yes", "Address": "1301 N Carroll Ave", "ISDID": null, "CampusID": null, "Status": "Active", "County": "Tarrant" }, "geometry": { "type": "Point", "coordinates": [ -97.133066999721805, 32.958008999644278 ] } },
{ "type": "Feature", "properties": { "OBJECTID": 1739, "NAME": "Carroll Senior", "GRADE": "High School", "SYMBOL": 91, "SCHOOL_SYM": 3, "ISD": "Carroll", "Visible": "Yes", "Address": "1501 W Southlake Blvd", "ISDID": null, "CampusID": null, "Status": "Active", "County": "Tarrant" }, "geometry": { "type": "Point", "coordinates": [ -97.15313699992619, 32.95151999986598 ] } },
{ "type": "Feature", "properties": { "OBJECTID": 1740, "NAME": "Carroll ", "GRADE": "High School", "SYMBOL": 91, "SCHOOL_SYM": 3, "ISD": "Carroll", "Visible": "Yes", "Address": "800 White Chapel Blvd", "ISDID": null, "CampusID": null, "Status": "Active", "County": "Tarrant" }, "geometry": { "type": "Point", "coordinates": [ -97.151088295770052, 32.950878763530852 ] } },
{ "type": "Feature", "properties": { "OBJECTID": 1741, "NAME": "Carroll", "GRADE": "Middle", "SYMBOL": 92, "SCHOOL_SYM": 2, "ISD": "Carroll", "Visible": "Yes", "Address": "1800 E Kirkwood Blvd", "ISDID": null, "CampusID": null, "Status": "Active", "County": "Tarrant" }, "geometry": { "type": "Point", "coordinates": [ -97.123090500137749, 32.953499999394538 ] } },
{ "type": "Feature", "properties": { "OBJECTID": 1742, "NAME": "Dove", "GRADE": "Elementary", "SYMBOL": 98, "SCHOOL_SYM": 1, "ISD": "Grapevine-Colleyville", "Visible": "Yes", "Address": "1932 Dove Rd", "ISDID": null, "CampusID": null, "Status": "Active", "County": "Tarrant" }, "geometry": { "type": "Point", "coordinates": [ -97.096553999511869, 32.955569999537538 ] } },
{ "type": "Feature", "properties": { "OBJECTID": 1743, "NAME": "Silver Lake", "GRADE": "Elementary", "SYMBOL": 98, "SCHOOL_SYM": 1, "ISD": "Grapevine-Colleyville", "Visible": "Yes", "Address": "1301 N Dooley", "ISDID": null, "CampusID": null, "Status": "Active", "County": "Tarrant" }, "geometry": { "type": "Point", "coordinates": [ -97.074180000015687, 32.952572999916519 ] } },
{ "type": "Feature", "properties": { "OBJECTID": 1744, "NAME": "Wilson", "GRADE": "Elementary", "SYMBOL": 98, "SCHOOL_SYM": 1, "ISD": "Coppell", "Visible": "Yes", "Address": "200 S Coppell Rd", "ISDID": null, "CampusID": null, "Status": "Active", "County": "Dallas" }, "geometry": { "type": "Point", "coordinates": [ -97.010959500260796, 32.974757999401319 ] } },
{ "type": "Feature", "properties": { "OBJECTID": 1745, "NAME": "Cottonwood Creek", "GRADE": "Elementary", "SYMBOL": 98, "SCHOOL_SYM": 1, "ISD": "Coppell", "Visible": "Yes", "Address": "615 Minyard Dr", "ISDID": null, "CampusID": null, "Status": "Active", "County": "Dallas" }, "geometry": { "type": "Point", "coordinates": [ -97.007471999564345, 32.976476999586133 ] } },
{ "type": "Feature", "properties": { "OBJECTID": 1746, "NAME": "Coppell ", "GRADE": "High ", "SYMBOL": 91, "SCHOOL_SYM": 3, "ISD": "Coppell", "Visible": "Yes", "Address": "185 W Pkwy Blvd", "ISDID": null, "CampusID": null, "Status": "Active", "County": "Dallas" }, "geometry": { "type": "Point", "coordinates": [ -96.998543999721392, 32.974460999326261 ] } },
{ "type": "Feature", "properties": { "OBJECTID": 1747, "NAME": "Pinkerton", "GRADE": "Elementary", "SYMBOL": 98, "SCHOOL_SYM": 1, "ISD": "Coppell", "Visible": "Yes", "Address": "260 Southwestern Blvd", "ISDID": null, "CampusID": null, "Status": "Active", "County": "Dallas" }, "geometry": { "type": "Point", "coordinates": [ -96.997234499649778, 32.948720999327371 ] } },
{ "type": "Feature", "properties": { "OBJECTID": 1748, "NAME": "Victory Place at Coppell", "GRADE": "High", "SYMBOL": 91, "SCHOOL_SYM": 3, "ISD": "Coppell", "Visible": null, "Address": "550 N Denton Tap Rd", "ISDID": null, "CampusID": null, "Status": "Active", "County": "Dallas" }, "geometry": { "type": "Point", "coordinates": [ -96.992752499697374, 32.982488999813754 ] } },
{ "type": "Feature", "properties": { "OBJECTID": 1749, "NAME": "North", "GRADE": "Middle", "SYMBOL": 92, "SCHOOL_SYM": 2, "ISD": "Coppell", "Visible": "Yes", "Address": "120 Natches Trce", "ISDID": null, "CampusID": null, "Status": "Active", "County": "Dallas" }, "geometry": { "type": "Point", "coordinates": [ -96.989026499641781, 32.983802999248027 ] } },
{ "type": "Feature", "properties": { "OBJECTID": 1750, "NAME": "Denton Creek", "GRADE": "Elementary", "SYMBOL": 98, "SCHOOL_SYM": 1, "ISD": "Coppell", "Visible": "Yes", "Address": "250 Natches Trce", "ISDID": null, "CampusID": null, "Status": "Active", "County": "Dallas" }, "geometry": { "type": "Point", "coordinates": [ -96.988198500076649, 32.983001999197043 ] } },
{ "type": "Feature", "properties": { "OBJECTID": 1751, "NAME": "Town Center", "GRADE": "Elementary", "SYMBOL": 98, "SCHOOL_SYM": 1, "ISD": "Coppell", "Visible": "Yes", "Address": "185 N Heartz Rd", "ISDID": null, "CampusID": null, "Status": "Active", "County": "Dallas" }, "geometry": { "type": "Point", "coordinates": [ -96.99016049980456, 32.974640999469614 ] } },
{ "type": "Feature", "properties": { "OBJECTID": 1752, "NAME": "Coppell Classic Academy ", "GRADE": "Elementary", "SYMBOL": 98, "SCHOOL_SYM": 1, "ISD": "Texas College Preparatory", "Visible": "Yes", "Address": "140 S Heartz Rd", "ISDID": null, "CampusID": null, "Status": "Active", "County": "Dallas" }, "geometry": { "type": "Point", "coordinates": [ -96.988387499817634, 32.967350999631748 ] } },
{ "type": "Feature", "properties": { "OBJECTID": 1753, "NAME": "New Tech", "GRADE": "High", "SYMBOL": 91, "SCHOOL_SYM": 3, "ISD": "Coppell", "Visible": "Yes", "Address": "113 Samuel Blvd", "ISDID": null, "CampusID": null, "Status": "Active", "County": "Dallas" }, "geometry": { "type": "Point", "coordinates": [ -96.972992999508406, 32.971724999894867 ] } },
{ "type": "Feature", "properties": { "OBJECTID": 1754, "NAME": "Austin", "GRADE": "Elementary", "SYMBOL": 98, "SCHOOL_SYM": 1, "ISD": "Coppell", "Visible": "Yes", "Address": "161 S Moore", "ISDID": null, "CampusID": null, "Status": "Active", "County": "Dallas" }, "geometry": { "type": "Point", "coordinates": [ -96.9783300000921, 32.966063999695329 ] } },
{ "type": "Feature", "properties": { "OBJECTID": 1755, "NAME": "Mockingbird", "GRADE": "Elementary", "SYMBOL": 98, "SCHOOL_SYM": 1, "ISD": "Coppell", "Visible": "Yes", "Address": "300 Mockingbird Ln", "ISDID": null, "CampusID": null, "Status": "Active", "County": "Dallas" }, "geometry": { "type": "Point", "coordinates": [ -96.969087000174881, 32.96271599998235 ] } },
{ "type": "Feature", "properties": { "OBJECTID": 1756, "NAME": "Coppell East", "GRADE": "Middle ", "SYMBOL": 92, "SCHOOL_SYM": 2, "ISD": "Coppell", "Visible": "Yes", "Address": "400 Mockingbird Ln", "ISDID": null, "CampusID": null, "Status": "Active", "County": "Dallas" }, "geometry": { "type": "Point", "coordinates": [ -96.968817000268146, 32.961464999775934 ] } },
{ "type": "Feature", "properties": { "OBJECTID": 1757, "NAME": "Lakeside", "GRADE": "Elementary", "SYMBOL": 98, "SCHOOL_SYM": 1, "ISD": "Coppell", "Visible": "Act", "Address": "1100 Village Pkwy", "ISDID": null, "CampusID": null, "Status": "Active", "County": "Dallas" }, "geometry": { "type": "Point", "coordinates": [ -96.958664999734737, 32.972147999686861 ] } },
{ "type": "Feature", "properties": { "OBJECTID": 1758, "NAME": "Universal Academy", "GRADE": "K-12", "SYMBOL": null, "SCHOOL_SYM": null, "ISD": "Charter", "Visible": "Yes", "Address": "1001 E Sandy Lake Rd", "ISDID": null, "CampusID": null, "Status": "Active", "County": "Dallas" }, "geometry": { "type": "Point", "coordinates": [ -96.958228499353211, 32.967935999677536 ] } },
{ "type": "Feature", "properties": { "OBJECTID": 1759, "NAME": "La Villita", "GRADE": "Middle", "SYMBOL": 92, "SCHOOL_SYM": 2, "ISD": "Carrollton-Farmers Branch", "Visible": "No", "Address": "1445 N Perry Rd", "ISDID": null, "CampusID": null, "Status": "Future", "County": "Dallas" }, "geometry": { "type": "Point", "coordinates": [ -96.896002499700217, 32.957054999727049 ] } },
{ "type": "Feature", "properties": { "OBJECTID": 1761, "NAME": "Haggar ", "GRADE": "Elementary", "SYMBOL": 98, "SCHOOL_SYM": 1, "ISD": "Plano", "Visible": "Yes", "Address": "17820 Campbell Rd", "ISDID": null, "CampusID": null, "Status": "Active", "County": "Collin" }, "geometry": { "type": "Point", "coordinates": [ -96.804733499561706, 32.995142999705422 ] } },
{ "type": "Feature", "properties": { "OBJECTID": 1762, "NAME": "Shepton ", "GRADE": "High", "SYMBOL": 91, "SCHOOL_SYM": 3, "ISD": "Plano", "Visible": "Yes", "Address": "5505 Plano Pkwy", "ISDID": null, "CampusID": null, "Status": "Active", "County": "Collin" }, "geometry": { "type": "Point", "coordinates": [ -96.811595999484481, 33.017408999450552 ] } },
{ "type": "Feature", "properties": { "OBJECTID": 1763, "NAME": "Huffman", "GRADE": "Elementary", "SYMBOL": 98, "SCHOOL_SYM": 1, "ISD": "Plano", "Visible": "Yes", "Address": "5510 Channel Isle Dr", "ISDID": null, "CampusID": null, "Status": "Active", "County": "Collin" }, "geometry": { "type": "Point", "coordinates": [ -96.8096474996062, 33.0192089998352 ] } },
{ "type": "Feature", "properties": { "OBJECTID": 1764, "NAME": "Centennial ", "GRADE": "Elementary", "SYMBOL": 98, "SCHOOL_SYM": 1, "ISD": "Plano", "Visible": "Yes", "Address": "2609 Ventura Dr", "ISDID": null, "CampusID": null, "Status": "Active", "County": "Collin" }, "geometry": { "type": "Point", "coordinates": [ -96.799490999753189, 33.034166999872674 ] } },
{ "type": "Feature", "properties": { "OBJECTID": 1765, "NAME": "STEM Academy at Memorial", "GRADE": "Elementary", "SYMBOL": 98, "SCHOOL_SYM": 1, "ISD": "Lewisville", "Visible": "Yes", "Address": "1001 Josey Ln", "ISDID": 6, "CampusID": null, "Status": "Active", "County": "Dallas" }, "geometry": { "type": "Point", "coordinates": [ -96.890394205947629, 32.953822639377975 ] } },
{ "type": "Feature", "properties": { "OBJECTID": 1766, "NAME": "Jerry R Junkins ", "GRADE": "Elementary", "SYMBOL": 98, "SCHOOL_SYM": 1, "ISD": "Dallas", "Visible": "Yes", "Address": "2808 Running Duke Dr", "ISDID": null, "CampusID": null, "Status": "Active", "County": "Dallas" }, "geometry": { "type": "Point", "coordinates": [ -96.856798500194145, 32.973866999767871 ] } },
{ "type": "Feature", "properties": { "OBJECTID": 1767, "NAME": "Founders Classical Academy", "GRADE": "K-11", "SYMBOL": null, "SCHOOL_SYM": null, "ISD": "Charter", "Visible": "Yes", "Address": "2400 N Josey Ln", "ISDID": null, "CampusID": null, "Status": "Active", "County": "Dallas" }, "geometry": { "type": "Point", "coordinates": [ -96.888658499953124, 32.979329999858585 ] } },
{ "type": "Feature", "properties": { "OBJECTID": 1768, "NAME": "Life School", "GRADE": "Elementary", "SYMBOL": 98, "SCHOOL_SYM": 1, "ISD": "Charter", "Visible": "Yes", "Address": "2660 E Trinity Mills Rd", "ISDID": null, "CampusID": null, "Status": "Active", "County": "Dallas" }, "geometry": { "type": "Point", "coordinates": [ -96.860762999598961, 32.984783999544078 ] } },
{ "type": "Feature", "properties": { "OBJECTID": 1769, "NAME": "Foundation School of Autism", "GRADE": "Pre K - 1", "SYMBOL": null, "SCHOOL_SYM": null, "ISD": "Charter", "Visible": "Yes", "Address": "2200 Midway Rd", "ISDID": null, "CampusID": null, "Status": "Active", "County": "Collin" }, "geometry": { "type": "Point", "coordinates": [ -96.842731499970924, 33.029153999712229 ] } },
{ "type": "Feature", "properties": { "OBJECTID": 1770, "NAME": "Barksdale ", "GRADE": "Elementary", "SYMBOL": 98, "SCHOOL_SYM": 1, "ISD": "Plano", "Visible": "Yes", "Address": "2424 Midway", "ISDID": null, "CampusID": null, "Status": "Active", "County": "Collin" }, "geometry": { "type": "Point", "coordinates": [ -96.838794000054321, 33.032528999748727 ] } },
{ "type": "Feature", "properties": { "OBJECTID": 1771, "NAME": "Johnie R Daniel", "GRADE": "Elementary", "SYMBOL": 98, "SCHOOL_SYM": 1, "ISD": "Northwest", "Visible": "No", "Address": "1901 Tye St", "ISDID": 8, "CampusID": null, "Status": "Future", "County": "Denton" }, "geometry": { "type": "Point", "coordinates": [ -97.298889999757435, 33.085939999704394 ] } },
{ "type": "Feature", "properties": { "OBJECTID": 1772, "NAME": "Denton CO JJAEP ", "GRADE": "Juvenile", "SYMBOL": null, "SCHOOL_SYM": null, "ISD": "Northwest", "Visible": "Yes", "Address": "18501 St HWY 114", "ISDID": 8, "CampusID": null, "Status": "Active", "County": "Denton" }, "geometry": { "type": "Point", "coordinates": [ -97.396514987150056, 33.036494991194225 ] } },
{ "type": "Feature", "properties": { "OBJECTID": 1773, "NAME": "Alan and Andra Perrin", "GRADE": "Elementary", "SYMBOL": 98, "SCHOOL_SYM": 1, "ISD": "Northwest", "Visible": "No", "Address": "2001 Texan Dr", "ISDID": 8, "CampusID": null, "Status": "Future", "County": "Denton" }, "geometry": { "type": "Point", "coordinates": [ -97.319470500050272, 33.030242999597249 ] } },
{ "type": "Feature", "properties": { "OBJECTID": 1774, "NAME": "Brinker", "GRADE": "Elementary", "SYMBOL": 98, "SCHOOL_SYM": 1, "ISD": "Plano", "Visible": "Yes", "Address": "3800 John Clark Pkwy", "ISDID": null, "CampusID": null, "Status": "Active", "County": "Collin" }, "geometry": { "type": "Point", "coordinates": [ -96.822081000128591, 33.049097999455903 ] } },
{ "type": "Feature", "properties": { "OBJECTID": 1775, "NAME": "Renner", "GRADE": "Middle", "SYMBOL": 92, "SCHOOL_SYM": 2, "ISD": "Plano", "Visible": "Yes", "Address": "5701 W Parker Rd", "ISDID": null, "CampusID": null, "Status": "Active", "County": "Collin" }, "geometry": { "type": "Point", "coordinates": [ -96.81719399960555, 33.047198999133713 ] } },
{ "type": "Feature", "properties": { "OBJECTID": 1776, "NAME": "Plano West Senior", "GRADE": "High ", "SYMBOL": 91, "SCHOOL_SYM": 3, "ISD": "Plano", "Visible": "Yes", "Address": "5601 W Parker Rd", "ISDID": null, "CampusID": null, "Status": "Active", "County": "Collin" }, "geometry": { "type": "Point", "coordinates": [ -96.813274499492309, 33.043913999661704 ] } },
{ "type": "Feature", "properties": { "OBJECTID": 1777, "NAME": "Wakeland ", "GRADE": "High", "SYMBOL": 91, "SCHOOL_SYM": 3, "ISD": "Frisco", "Visible": "Yes", "Address": "10700 legacy Dr", "ISDID": 14, "CampusID": null, "Status": "Active", "County": "Collin" }, "geometry": { "type": "Point", "coordinates": [ -96.838974969646756, 33.087410003576501 ] } },
{ "type": "Feature", "properties": { "OBJECTID": 1778, "NAME": "Allen ", "GRADE": "Elementary", "SYMBOL": 98, "SCHOOL_SYM": 1, "ISD": "Collin", "Visible": "Yes", "Address": "5800 Legacy Dr", "ISDID": null, "CampusID": null, "Status": "Active", "County": "Collin" }, "geometry": { "type": "Point", "coordinates": [ -96.82232037798488, 33.077802621758281 ] } },
{ "type": "Feature", "properties": { "OBJECTID": 1779, "NAME": "Lone Star Language Academy", "GRADE": "K-5", "SYMBOL": null, "SCHOOL_SYM": null, "ISD": "Charter", "Visible": "Yes", "Address": "5301 Democracy Dr", "ISDID": null, "CampusID": null, "Status": "Active", "County": "Collin" }, "geometry": { "type": "Point", "coordinates": [ -96.813161999674136, 33.06924899975126 ] } },
{ "type": "Feature", "properties": { "OBJECTID": 1780, "NAME": "Collin CO JJAEP", "GRADE": "Juvenille", "SYMBOL": null, "SCHOOL_SYM": null, "ISD": "Frisco", "Visible": "Yes", "Address": "5515 Ohio Dr", "ISDID": 14, "CampusID": null, "Status": "Active", "County": "Collin" }, "geometry": { "type": "Point", "coordinates": [ -96.796405787339921, 33.123093057260299 ] } },
{ "type": "Feature", "properties": { "OBJECTID": 1781, "NAME": "Career & Technology Education Cente", "GRADE": null, "SYMBOL": null, "SCHOOL_SYM": null, "ISD": "Frisco", "Visible": "Yes", "Address": "9889 Wade Blvd", "ISDID": 14, "CampusID": null, "Status": "Active", "County": "Collin" }, "geometry": { "type": "Point", "coordinates": [ -96.796237499806978, 33.126560999517892 ] } },
{ "type": "Feature", "properties": { "OBJECTID": 1782, "NAME": "Shawnee Trail", "GRADE": "Elementary", "SYMBOL": 98, "SCHOOL_SYM": 1, "ISD": "Frisco", "Visible": "Yes", "Address": "10701 Preston Vineyard Dr", "ISDID": 14, "CampusID": null, "Status": "Active", "County": "Collin" }, "geometry": { "type": "Point", "coordinates": [ -96.789334499955686, 33.133949999506108 ] } },
{ "type": "Feature", "properties": { "OBJECTID": 1783, "NAME": "Minett ", "GRADE": "Elementary", "SYMBOL": 98, "SCHOOL_SYM": 1, "ISD": "Frisco", "Visible": "Yes", "Address": "16000 Peyton Abbey Rd", "ISDID": 14, "CampusID": null, "Status": "Active", "County": "Collin" }, "geometry": { "type": "Point", "coordinates": [ -96.789829985816283, 33.143349987775515 ] } },
{ "type": "Feature", "properties": { "OBJECTID": 1784, "NAME": "Early Childhood School", "GRADE": "Pre-K", "SYMBOL": null, "SCHOOL_SYM": null, "ISD": "Frisco", "Visible": "Yes", "Address": "10330 Red Cedar Dr", "ISDID": 14, "CampusID": null, "Status": "Active", "County": "Collin" }, "geometry": { "type": "Point", "coordinates": [ -96.791157000330415, 33.150590999766052 ] } },
{ "type": "Feature", "properties": { "OBJECTID": 1786, "NAME": "Student Opportunity Center", "GRADE": "High", "SYMBOL": 91, "SCHOOL_SYM": 1, "ISD": "Frisco", "Visible": "Yes", "Address": "6928 Maple St", "ISDID": 14, "CampusID": null, "Status": "Active", "County": "Collin" }, "geometry": { "type": "Point", "coordinates": [ -96.824019403364744, 33.153674471929911 ] } },
{ "type": "Feature", "properties": { "OBJECTID": 1787, "NAME": "Founders Classical Academy ", "GRADE": "K - 11", "SYMBOL": null, "SCHOOL_SYM": null, "ISD": "Charter", "Visible": "Yes", "Address": "10710 Frisco St", "ISDID": null, "CampusID": null, "Status": "Active", "County": "Collin" }, "geometry": { "type": "Point", "coordinates": [ -96.83256149944728, 33.166412999118172 ] } },
{ "type": "Feature", "properties": { "OBJECTID": 1788, "NAME": "Wilkinson ", "GRADE": "Middle", "SYMBOL": 92, "SCHOOL_SYM": 2, "ISD": "Frisco", "Visible": "No", "Address": "1892 PGA Pkwy", "ISDID": 14, "CampusID": null, "Status": "Future", "County": "Collin" }, "geometry": { "type": "Point", "coordinates": [ -96.802774996537693, 33.204119979937197 ] } },
{ "type": "Feature", "properties": { "OBJECTID": 1789, "NAME": "Joyce Hall ", "GRADE": "Elementary", "SYMBOL": 98, "SCHOOL_SYM": 1, "ISD": "Prosper", "Visible": "Yes", "Address": "1001 Star Meadow Dr", "ISDID": 15, "CampusID": null, "Status": "Active", "County": "Collin" }, "geometry": { "type": "Point", "coordinates": [ -96.835114977813575, 33.245422723563479 ] } },
{ "type": "Feature", "properties": { "OBJECTID": 1790, "NAME": "William Rushing", "GRADE": "Middle", "SYMBOL": 92, "SCHOOL_SYM": 2, "ISD": "Prosper", "Visible": "Yes", "Address": "9080 W First St", "ISDID": 15, "CampusID": null, "Status": "Active", "County": "Collin" }, "geometry": { "type": "Point", "coordinates": [ -96.813904990766432, 33.233754994867262 ] } },
{ "type": "Feature", "properties": { "OBJECTID": 1791, "NAME": "Reynolds", "GRADE": "Middle", "SYMBOL": 92, "SCHOOL_SYM": 2, "ISD": "Prosper", "Visible": "Yes", "Address": "700 N Coleman St", "ISDID": 15, "CampusID": null, "Status": "Active", "County": "Collin" }, "geometry": { "type": "Point", "coordinates": [ -96.802067214727217, 33.242465283202847 ] } },
{ "type": "Feature", "properties": { "OBJECTID": 1792, "NAME": "Prosper DAEP", "GRADE": "K-12", "SYMBOL": null, "SCHOOL_SYM": null, "ISD": "Prosper", "Visible": "Yes", "Address": "605 E 7th St", "ISDID": 15, "CampusID": null, "Status": "Active", "County": "Collin" }, "geometry": { "type": "Point", "coordinates": [ -96.79991849957571, 33.242471999281221 ] } },
{ "type": "Feature", "properties": { "OBJECTID": 1793, "NAME": "Judy Rucker", "GRADE": "Elementary", "SYMBOL": 98, "SCHOOL_SYM": 1, "ISD": "Prosper", "Visible": "Yes", "Address": "402 S Craig Rd", "ISDID": 15, "CampusID": null, "Status": "Active", "County": "Collin" }, "geometry": { "type": "Point", "coordinates": [ -96.794937000089803, 33.231762000015088 ] } },
{ "type": "Feature", "properties": { "OBJECTID": 1794, "NAME": "Ralph and Mary Lynn Boyer", "GRADE": "Elementary", "SYMBOL": 98, "SCHOOL_SYM": 1, "ISD": "Prosper", "Visible": "Yes", "Address": "1616 Montgomery Ln", "ISDID": 15, "CampusID": null, "Status": "Active", "County": "Collin" }, "geometry": { "type": "Point", "coordinates": [ -96.808535999507328, 33.264386999955214 ] } },
{ "type": "Feature", "properties": { "OBJECTID": 1795, "NAME": "Prosper ", "GRADE": "High", "SYMBOL": 91, "SCHOOL_SYM": 1, "ISD": "Prosper", "Visible": "Yes", "Address": "301 Eagle Dr", "ISDID": 15, "CampusID": null, "Status": "Active", "County": "Collin" }, "geometry": { "type": "Point", "coordinates": [ -96.798765296229135, 33.257640295910868 ] } },
{ "type": "Feature", "properties": { "OBJECTID": 1796, "NAME": "Light Farms ", "GRADE": "Elementary", "SYMBOL": 98, "SCHOOL_SYM": 1, "ISD": "Prosper", "Visible": "Yes", "Address": "1100 Cypress Creek Way", "ISDID": 15, "CampusID": null, "Status": "Active", "County": "Collin" }, "geometry": { "type": "Point", "coordinates": [ -96.79810049945165, 33.274358999344265 ] } },
{ "type": "Feature", "properties": { "OBJECTID": 1797, "NAME": "Brenda Calhoun Early Childhood", "GRADE": "EE-PK", "SYMBOL": null, "SCHOOL_SYM": null, "ISD": "Prosper", "Visible": "No", "Address": "605 E 7th St", "ISDID": 15, "CampusID": null, "Status": "Future", "County": "Collin" }, "geometry": { "type": "Point", "coordinates": [ -96.79991849957571, 33.242471999281221 ] } },
{ "type": "Feature", "properties": { "OBJECTID": 1798, "NAME": "New EL 119", "GRADE": "Elementary", "SYMBOL": 98, "SCHOOL_SYM": 1, "ISD": "Prosper", "Visible": "No", "Address": "605 E 7th St", "ISDID": 15, "CampusID": null, "Status": "Future", "County": "Collin" }, "geometry": { "type": "Point", "coordinates": [ -96.79991849957571, 33.242471999281221 ] } },
{ "type": "Feature", "properties": { "OBJECTID": 1799, "NAME": "New El 118", "GRADE": "Elementary", "SYMBOL": 98, "SCHOOL_SYM": 1, "ISD": "Prosper", "Visible": "No", "Address": "605 E 7th St", "ISDID": 15, "CampusID": null, "Status": "Future", "County": "Collin" }, "geometry": { "type": "Point", "coordinates": [ -96.79991849957571, 33.242471999281221 ] } },
{ "type": "Feature", "properties": { "OBJECTID": 1800, "NAME": "Dan Christie ", "GRADE": "Elementary", "SYMBOL": 98, "SCHOOL_SYM": 1, "ISD": "Prosper", "Visible": "No", "Address": "605 E 7th St", "ISDID": 15, "CampusID": null, "Status": "Future", "County": "Collin" }, "geometry": { "type": "Point", "coordinates": [ -96.79991849957571, 33.242471999281221 ] } },
{ "type": "Feature", "properties": { "OBJECTID": 1801, "NAME": "New Middle #5", "GRADE": "Middle", "SYMBOL": 92, "SCHOOL_SYM": 2, "ISD": "Prosper", "Visible": "No", "Address": "605 E 7th St", "ISDID": 15, "CampusID": null, "Status": "Future", "County": "Collin" }, "geometry": { "type": "Point", "coordinates": [ -96.79991849957571, 33.242471999281221 ] } },
{ "type": "Feature", "properties": { "OBJECTID": 1802, "NAME": "Marcy B Lykins ", "GRADE": "Elementary", "SYMBOL": 98, "SCHOOL_SYM": 1, "ISD": "Celina", "Visible": "Yes", "Address": "550 S Utah", "ISDID": null, "CampusID": null, "Status": "Active", "County": "Collin" }, "geometry": { "type": "Point", "coordinates": [ -96.792647018718071, 33.319350935603552 ] } },
{ "type": "Feature", "properties": { "OBJECTID": 1803, "NAME": "Jerry & Linda Moore", "GRADE": "Middle", "SYMBOL": 92, "SCHOOL_SYM": 2, "ISD": "Celina", "Visible": "Yes", "Address": "300 E GA Moore Pkwy", "ISDID": null, "CampusID": null, "Status": "Active", "County": "Collin" }, "geometry": { "type": "Point", "coordinates": [ -96.787195000091401, 33.323094999398613 ] } },
{ "type": "Feature", "properties": { "OBJECTID": 1804, "NAME": "Bobby Ray & Afton Martin", "GRADE": "Elementary", "SYMBOL": 98, "SCHOOL_SYM": 1, "ISD": "Celina", "Visible": "No", "Address": "2905 N Louisiana Dr", "ISDID": null, "CampusID": null, "Status": "Future", "County": "Collin" }, "geometry": { "type": "Point", "coordinates": [ -96.78309806221398, 33.361030138112156 ] } }
]
}
